{"version": 0.6, "generator": "Overpass API 0.7.59 e21c39fe", "osm3s": {"timestamp_osm_base": "2022-11-22T06:57:35Z", "copyright": "The data included in this document is from www.openstreetmap.org. The data is made available under ODbL."}, "elements": [{"type": "node", "id": 310973094, "lat": 37.7673947, "lon": -122.2421035, "tags": {"addr:city": "Alameda", "addr:housenumber": "1555", "addr:postcode": "94501", "addr:state": "CA", "addr:street": "Lincoln Avenue", "brand": "7-Eleven", "brand:wikidata": "Q259340", "brand:wikipedia": "en:7-Eleven", "name": "7-Eleven", "shop": "convenience"}}, {"type": "node", "id": 318886219, "lat": 37.875924, "lon": -122.2601506, "tags": {"addr:street": "Euclid Avenue", "name": "Seven Palms", "shop": "convenience"}}, {"type": "node", "id": 329582060, "lat": 37.8001278, "lon": -122.4058195}, {"type": "node", "id": 329582062, "lat": 37.8001447, "lon": -122.4056816}, {"type": "node", "id": 329582064, "lat": 37.8000259, "lon": -122.4056584}, {"type": "node", "id": 360462977, "lat": 37.7482363, "lon": -122.4336596, "tags": {"name": "Angel's Deli & Market", "shop": "convenience"}}, {"type": "node", "id": 360463705, "lat": 37.7484143, "lon": -122.4269955, "tags": {"addr:city": "San Francisco", "addr:housenumber": "1401", "addr:street": "Church Street", "name": "Modern Market", "shop": "convenience"}}, {"type": "node", "id": 365490315, "lat": 37.7952821, "lon": -122.3931092, "tags": {"created_by": "Potlatch 0.10f", "name": "Village Market", "shop": "convenience", "wheelchair": "yes"}}, {"type": "node", "id": 366352409, "lat": 37.8669533, "lon": -122.2563906, "tags": {"name": "The Den", "shop": "convenience"}}, {"type": "node", "id": 384359194, "lat": 37.7864444, "lon": -122.4146585, "tags": {"inside_atm": "yes", "inside_atm_capacity": "1", "name": "Star Market", "shop": "convenience"}}, {"type": "node", "id": 384396123, "lat": 37.8731408, "lon": -122.2736283}, {"type": "node", "id": 384396124, "lat": 37.87315, "lon": -122.2735202}, {"type": "node", "id": 384396125, "lat": 37.8730133, "lon": -122.2735017}, {"type": "node", "id": 384396126, "lat": 37.8730042, "lon": -122.2736097}, {"type": "node", "id": 387227570, "lat": 37.8052324, "lon": -122.4235144, "tags": {"addr:city": "San Francisco", "addr:housenumber": "3098", "addr:street": "Polk Street", "name": "S.F. Liquor and Food Mart", "shop": "convenience", "source": "survey"}}, {"type": "node", "id": 389447369, "lat": 37.7732673, "lon": -122.4084732}, {"type": "node", "id": 416784221, "lat": 37.8001107, "lon": -122.4410436, "tags": {"addr:city": "San Francisco", "addr:housenumber": "2299", "addr:state": "CA", "addr:street": "Chestnut Street", "name": "Marina Deli & Liquor", "shop": "convenience"}}, {"type": "node", "id": 417709342, "lat": 37.876869, "lon": -122.2803493, "tags": {"addr:city": "Berkeley", "addr:country": "US", "addr:housenumber": "1601", "addr:state": "CA", "addr:street": "California Street", "name": "Cedar Market", "shop": "convenience"}}, {"type": "node", "id": 428114273, "lat": 37.8062477, "lon": -122.274255, "tags": {"name": "7 Up Town Market", "old_name": "Cafe 15", "shop": "convenience"}}, {"type": "node", "id": 435049430, "lat": 37.8817119, "lon": -122.2739556, "tags": {"addr:city": "Berkeley", "addr:housenumber": "1343", "addr:street": "Martin Luther King Jr Way", "name": "Anya's Deli", "old_name": "Good 2 Go Mart & Curry, Beer & Wine;Rose & Grove Market", "shop": "convenience"}}, {"type": "node", "id": 444644977, "lat": 37.858767, "lon": -122.253055, "tags": {"brand": "7-Eleven", "brand:wikidata": "Q259340", "brand:wikipedia": "en:7-Eleven", "name": "7-Eleven", "opening_hours": "24/7", "shop": "convenience", "website": "https://www.7-eleven.com/locations/ca/berkeley/2887-college-ave-16192", "wheelchair": "yes"}}, {"type": "node", "id": 497304181, "lat": 37.76668, "lon": -122.4219156, "tags": {"addr:city": "San Francisco", "addr:housenumber": "399", "addr:postcode": "94103", "addr:street": "Valencia Street", "name": "B & M Market", "shop": "convenience"}}, {"type": "node", "id": 497304203, "lat": 37.7650583, "lon": -122.4220701, "tags": {"addr:city": "San Francisco", "addr:housenumber": "3100", "addr:postcode": "94103", "addr:state": "CA", "addr:street": "16th Street", "name": "Foodhall", "opening_hours": "Mo-Su 09:00-21:00", "shop": "convenience"}}, {"type": "node", "id": 525851709, "lat": 37.8596252, "lon": -122.2718457, "tags": {"name": "City Lee's Market", "opening_hours": "Mo-Su 08:00-22:00", "phone": "(510) 981-1913", "shop": "convenience", "wheelchair": "yes"}}, {"type": "node", "id": 527505796, "lat": 37.76976, "lon": -122.422503, "tags": {"created_by": "Mapzen POI Collector 1.0 Beta rev. 16939", "name": "Fred's Liquor", "shop": "convenience"}}, {"type": "node", "id": 529117813, "lat": 37.7646987, "lon": -122.4235801, "tags": {"shop": "convenience"}}, {"type": "node", "id": 539155036, "lat": 37.861241, "lon": -122.2893463, "tags": {"name": "Annaher Grocery & Liquor", "opening_hours": "Mo-Su 09:00-22:00", "phone": "+1 510-849-2502", "shop": "convenience"}}, {"type": "node", "id": 544349509, "lat": 37.760605, "lon": -122.438379, "tags": {"amenity": "atm", "name": "Rainbow market", "shop": "convenience"}}, {"type": "node", "id": 547548502, "lat": 37.7638302, "lon": -122.2391914, "tags": {"name": "Vin Fin Wines", "shop": "convenience"}}, {"type": "node", "id": 558566895, "lat": 37.809737, "lon": -122.2858454, "tags": {"addr:housenumber": "1400", "addr:street": "Adeline Street", "name": "Sunbeam Market", "shop": "convenience"}}, {"type": "node", "id": 559822366, "lat": 37.8123138, "lon": -122.2843108, "tags": {"addr:street": "18th Street", "name": "Golden West Market", "shop": "convenience"}}, {"type": "node", "id": 559822405, "lat": 37.8109688, "lon": -122.2800909}, {"type": "node", "id": 559824189, "lat": 37.8111254, "lon": -122.2802881}, {"type": "node", "id": 559824190, "lat": 37.8110719, "lon": -122.2800533}, {"type": "node", "id": 559824192, "lat": 37.8110223, "lon": -122.2803257}, {"type": "node", "id": 559824219, "lat": 37.8119438, "lon": -122.2822461}, {"type": "node", "id": 559824220, "lat": 37.8118782, "lon": -122.281962}, {"type": "node", "id": 559824221, "lat": 37.8117476, "lon": -122.2820102}, {"type": "node", "id": 559824222, "lat": 37.8118056, "lon": -122.2822629}, {"type": "node", "id": 571457963, "lat": 37.7601013, "lon": -122.3967464, "tags": {"name": "Good Life Grocery", "opening_hours": "Mo-Su 08:00-20:00", "shop": "convenience"}}, {"type": "node", "id": 586704382, "lat": 37.764528, "lon": -122.432407, "tags": {"addr:city": "San Francisco", "addr:country": "US", "addr:housenumber": "2285", "addr:postcode": "94114", "addr:state": "CA", "addr:street": "Market Street", "name": "Harvest Market", "shop": "convenience", "wheelchair": "yes"}}, {"type": "node", "id": 615143634, "lat": 37.7265162, "lon": -122.4645819, "tags": {"brand": "7-Eleven", "brand:wikidata": "Q259340", "brand:wikipedia": "en:7-Eleven", "name": "7-Eleven", "shop": "convenience"}}, {"type": "node", "id": 621793543, "lat": 37.7875763, "lon": -122.4131871, "tags": {"addr:city": "San Francisco", "addr:housenumber": "693", "addr:street": "Post Street", "name": "King Liquor", "shop": "convenience", "source": "survey"}}, {"type": "node", "id": 621818319, "lat": 37.7886224, "lon": -122.4100569, "tags": {"name": "Mason Liquor & Deli", "opening_hours": "Fr 10:00-24:00; Mo-Th 10:00-22:00; Sa 15:00-24:00; Su off", "phone": "415-856-8976", "shop": "convenience", "source": "survey"}}, {"type": "node", "id": 621851566, "lat": 37.7888877, "lon": -122.4105878, "tags": {"addr:city": "San Francisco", "addr:country": "US", "addr:housenumber": "615", "addr:street": "Sutter Street", "atm_inside": "1", "name": "MMC Wine & Spirit", "phone": "415-474-4951", "shop": "convenience", "source": "survey", "wheelchair": "limited"}}, {"type": "node", "id": 647656834, "lat": 37.7719921, "lon": -122.4305641, "tags": {"addr:housenumber": "501", "addr:postcode": "94117", "addr:street": "Haight Street", "name": "Haight Fillmore Whole Foods Co.", "shop": "convenience"}}, {"type": "node", "id": 661753960, "lat": 37.8547486, "lon": -122.2482184, "tags": {"name": "Star Grocery", "opening_hours": "Mo-Sa 09:00-18:00; Su 10:00-15:00", "phone": "+1 510-652-2490", "shop": "convenience", "website": "https://m.facebook.com/stargroceryberkeley/"}}, {"type": "node", "id": 661906871, "lat": 37.8346561, "lon": -122.2124927, "tags": {"brand": "7-Eleven", "brand:wikidata": "Q259340", "name": "7-Eleven", "shop": "convenience"}}, {"type": "node", "id": 709864813, "lat": 37.7865168, "lon": -122.4142315}, {"type": "node", "id": 728301693, "lat": 37.81732, "lon": -122.2834697, "tags": {"name": "Nick's Liquors", "shop": "convenience"}}, {"type": "node", "id": 734841519, "lat": 37.7621857, "lon": -122.4385594, "tags": {"addr:housenumber": "4151", "addr:street": "17th Street", "amenity": "atm", "check_date": "2021-12-04", "name": "Eureka Market", "shop": "convenience"}}, {"type": "node", "id": 761948012, "lat": 37.7759164, "lon": -122.4086602, "tags": {"name": "Welcome Super Market", "operator": "Welcome Super Market", "shop": "convenience"}}, {"type": "node", "id": 830588349, "lat": 37.7856885, "lon": -122.4147799, "tags": {"name": "Deena's Market", "shop": "convenience"}}, {"type": "node", "id": 830816086, "lat": 37.8544723, "lon": -122.2715178}, {"type": "node", "id": 830816088, "lat": 37.8543375, "lon": -122.2715028}, {"type": "node", "id": 830816089, "lat": 37.854372, "lon": -122.2712447}, {"type": "node", "id": 830816091, "lat": 37.8545033, "lon": -122.2712583}, {"type": "node", "id": 847681715, "lat": 37.7863186, "lon": -122.4141917}, {"type": "node", "id": 847681767, "lat": 37.7865054, "lon": -122.4143228}, {"type": "node", "id": 847681833, "lat": 37.7863072, "lon": -122.414283}, {"type": "node", "id": 904141567, "lat": 37.7806839, "lon": -122.408198, "tags": {"shop": "convenience"}}, {"type": "node", "id": 950977350, "lat": 37.7943016, "lon": -122.3967267, "tags": {"addr:city": "San Francisco", "addr:housenumber": "43", "addr:postcode": "94111", "addr:state": "CA", "addr:street": "Drumm Street", "brand": "7-Eleven", "brand:wikidata": "Q259340", "brand:wikipedia": "en:7-Eleven", "name": "7-Eleven", "shop": "convenience", "website": "https://www.7-eleven.com/"}}, {"type": "node", "id": 967404589, "lat": 37.7560361, "lon": -122.4067998, "tags": {"name": "Rose Food Mart", "shop": "convenience"}}, {"type": "node", "id": 981839188, "lat": 37.9402357, "lon": -122.3106539, "tags": {"addr:housenumber": "6462 Arlington Boulevard", "addr:postcode": "94805", "name": "Arlington Market", "phone": "+15102369620", "shop": "convenience"}}, {"type": "node", "id": 1037993306, "lat": 37.8040509, "lon": -122.2626783, "tags": {"name": "Lake Food Center", "shop": "convenience"}}, {"type": "node", "id": 1060956195, "lat": 37.7535913, "lon": -122.4341333, "tags": {"addr:city": "San Francisco", "addr:housenumber": "1001", "addr:state": "CA", "addr:street": "Castro Street", "name": "1001 Castro Street", "shop": "convenience"}}, {"type": "node", "id": 1068441480, "lat": 37.8043229, "lon": -122.2639785, "tags": {"name": "Gourmet Market", "shop": "convenience"}}, {"type": "node", "id": 1073821273, "lat": 37.7911622, "lon": -122.4075879, "tags": {"name": "R & G", "shop": "convenience"}}, {"type": "node", "id": 1097204393, "lat": 37.8266034, "lon": -122.210125, "tags": {"addr:housenumber": "6119", "contact:phone": "+1-510-834-3651", "contact:website": "https://emdelicatering.com/", "description": "Korean Food Market, Catering & Delivery", "name": "EM Deli & Catering", "opening_hours": "11:00-20:00", "shop": "convenience"}}, {"type": "node", "id": 1126947956, "lat": 37.7718315, "lon": -122.4335053, "tags": {"addr:housenumber": "684", "addr:street": "Haight Street", "name": "Sunrise Grocery", "shop": "convenience", "wheelchair": "yes"}}, {"type": "node", "id": 1126948195, "lat": 37.7722466, "lon": -122.4286694, "tags": {"addr:housenumber": "399", "addr:street": "Haight Street", "name": "S & W market", "shop": "convenience"}}, {"type": "node", "id": 1126948245, "lat": 37.7720318, "lon": -122.4318431, "tags": {"addr:housename": "588", "addr:street": "Haight Street", "name": "Himalaya Plaza", "shop": "convenience"}}, {"type": "node", "id": 1195038546, "lat": 37.9359504, "lon": -122.3689719, "tags": {"shop": "convenience", "wheelchair": "yes"}}, {"type": "node", "id": 1195042430, "lat": 37.9339472, "lon": -122.369097, "tags": {"name": "j&s market", "opening_hours": "07:00-09:00", "shop": "convenience"}}, {"type": "node", "id": 1229745512, "lat": 37.7801322, "lon": -122.4079147, "tags": {"shop": "convenience"}}, {"type": "node", "id": 1230343414, "lat": 37.7253138, "lon": -122.4028091, "tags": {"name": "Tierra Santa Market", "shop": "convenience"}}, {"type": "node", "id": 1230343494, "lat": 37.7320804, "lon": -122.4059665, "tags": {"name": "Food Mart", "shop": "convenience"}}, {"type": "node", "id": 1241673415, "lat": 37.7289174, "lon": -122.4196089, "tags": {"name": "Hillcrest Market", "shop": "convenience"}}, {"type": "node", "id": 1241690521, "lat": 37.733976, "lon": -122.3912081, "tags": {"addr:housenumber": "4900", "addr:street": "3rd Street", "shop": "convenience"}}, {"type": "node", "id": 1244729027, "lat": 37.8001844, "lon": -122.2159367, "tags": {"addr:city": "Oakland", "addr:housenumber": "2207", "addr:postcode": "94602", "addr:state": "CA", "addr:street": "MacArthur Boulevard", "description": "Halal meat and grocery.", "name": "Tazah Market", "phone": "510-531-9000", "shop": "convenience"}}, {"type": "node", "id": 1281158238, "lat": 37.785058, "lon": -122.3954074, "tags": {"name": "The Snack Depot", "shop": "convenience"}}, {"type": "node", "id": 1283249737, "lat": 37.78164, "lon": -122.3960796, "tags": {"name": "Jack's Market", "shop": "convenience"}}, {"type": "node", "id": 1308556615, "lat": 37.768142, "lon": -122.4294601}, {"type": "node", "id": 1308556616, "lat": 37.7682011, "lon": -122.4296095}, {"type": "node", "id": 1308556628, "lat": 37.7678089, "lon": -122.4292255}, {"type": "node", "id": 1308556631, "lat": 37.7681604, "lon": -122.429159}, {"type": "node", "id": 1308556647, "lat": 37.7681357, "lon": -122.4296035}, {"type": "node", "id": 1308556661, "lat": 37.7682257, "lon": -122.4291652}, {"type": "node", "id": 1319206689, "lat": 37.7627211, "lon": -122.4356392, "tags": {"addr:housenumber": "2416", "addr:street": "Market Street", "name": "KD's Grog and Groceries", "shop": "convenience"}}, {"type": "node", "id": 1321091248, "lat": 37.9958498, "lon": -122.2852402, "tags": {"brand": "ExtraMile", "brand:wikidata": "Q64224605", "name": "ExtraMile", "shop": "convenience"}}, {"type": "node", "id": 1349552622, "lat": 37.8630178, "lon": -122.258423, "tags": {"addr:city": "Berkeley", "addr:housenumber": "2601", "addr:postcode": "94704", "addr:state": "CA", "addr:street": "Telegraph Avenue", "brand": "7-Eleven", "brand:wikidata": "Q259340", "brand:wikipedia": "en:7-Eleven", "name": "7-Eleven", "opening_hours": "Mo-Su 06:00-22:00", "shop": "convenience", "website": "https://www.7-eleven.com/locations/ca/berkeley/2601-telegraph-ave-17582", "wheelchair": "yes"}}, {"type": "node", "id": 1361601871, "lat": 37.722078, "lon": -122.16814, "tags": {"addr:housenumber": "1126", "addr:street": "Davis Street", "brand": "7-Eleven", "brand:wikidata": "Q259340", "brand:wikipedia": "en:7-Eleven", "name": "7-Eleven", "shop": "convenience"}}, {"type": "node", "id": 1375234287, "lat": 37.9102342, "lon": -122.299513, "tags": {"addr:city": "El Cerrito", "addr:housenumber": "7022", "addr:postcode": "94530", "addr:state": "CA", "addr:street": "Stockton Avenue", "brand": "7-Eleven", "brand:wikidata": "Q259340", "name": "7-Eleven", "opening_hours": "24/7", "phone": "+1 510 526 2524", "shop": "convenience", "website": "https://www.7-eleven.com/"}}, {"type": "node", "id": 1377034082, "lat": 37.8198916, "lon": -122.26717, "tags": {"name": "Oasis Food Market", "shop": "convenience"}}, {"type": "node", "id": 1388563576, "lat": 37.7804941, "lon": -122.3944967}, {"type": "node", "id": 1388563599, "lat": 37.7805394, "lon": -122.3945541}, {"type": "node", "id": 1388563674, "lat": 37.7805765, "lon": -122.3943927}, {"type": "node", "id": 1388563758, "lat": 37.7806218, "lon": -122.3944501}, {"type": "node", "id": 1395340513, "lat": 37.8191146, "lon": -122.2669747, "tags": {"name": "Marwa Halal Market", "shop": "convenience"}}, {"type": "node", "id": 1431426728, "lat": 37.7421503, "lon": -122.4226138, "tags": {"addr:city": "San Francisco", "brand": "7-Eleven", "brand:wikidata": "Q259340", "brand:wikipedia": "en:7-Eleven", "name": "7-Eleven", "shop": "convenience"}}, {"type": "node", "id": 1485975789, "lat": 37.7904053, "lon": -122.4060032, "tags": {"addr:housenumber": "517", "addr:street": "Bush Street", "name": "Grant Mini Market", "shop": "convenience"}}, {"type": "node", "id": 1485988190, "lat": 37.7902181, "lon": -122.4074048, "tags": {"addr:housenumber": "611", "addr:street": "Bush Street", "name": "Food Fair Market Liquors", "shop": "convenience"}}, {"type": "node", "id": 1486016637, "lat": 37.7900177, "lon": -122.410859, "tags": {"addr:city": "San Francisco", "addr:housenumber": "820", "addr:postcode": "94108", "addr:state": "CA", "addr:street": "Bush Street", "name": "Bush Market", "shop": "convenience"}}, {"type": "node", "id": 1486057725, "lat": 37.7890489, "lon": -122.4090986, "tags": {"brand": "7-Eleven", "brand:wikidata": "Q259340", "brand:wikipedia": "en:7-Eleven", "name": "7-Eleven", "shop": "convenience"}}, {"type": "node", "id": 1489676337, "lat": 37.8418278, "lon": -122.2831409, "tags": {"name": "Jinny Beauty Supply", "shop": "convenience"}}, {"type": "node", "id": 1489698999, "lat": 37.8400879, "lon": -122.2825804, "tags": {"name": "Choice Meat Market Wholesale Retail Packaging, Restaurant Supplies", "shop": "convenience"}}, {"type": "node", "id": 1490111108, "lat": 37.8341276, "lon": -122.280665, "tags": {"name": "Emeryville Market", "opening_hours": "Mo-Su 07:00-22:00", "phone": "+15102509053", "shop": "convenience"}}, {"type": "node", "id": 1515933541, "lat": 37.8421587, "lon": -122.2861615, "tags": {"name": "Dollars Market", "shop": "convenience"}}, {"type": "node", "id": 1556251729, "lat": 37.8092152, "lon": -122.2730894, "tags": {"name": "Alexandre's Market and Spirits", "shop": "convenience"}}, {"type": "node", "id": 1612642986, "lat": 37.8479731, "lon": -122.2851336, "tags": {"addr:housenumber": "6444", "addr:street": "San Pablo Avenue", "name": "65th Street Market", "shop": "convenience"}}, {"type": "node", "id": 1612643158, "lat": 37.784776, "lon": -122.3886827, "tags": {"addr:housenumber": "120", "addr:postcode": "94107", "addr:street": "Brannan Street", "name": "Bayside Market", "shop": "convenience", "source": "Survey"}}, {"type": "node", "id": 1612762239, "lat": 37.7641314, "lon": -122.4669832}, {"type": "node", "id": 1612762240, "lat": 37.7641373, "lon": -122.4668352}, {"type": "node", "id": 1612762251, "lat": 37.7643629, "lon": -122.4668496}, {"type": "node", "id": 1612762255, "lat": 37.7643946, "lon": -122.467}, {"type": "node", "id": 1612762256, "lat": 37.7644005, "lon": -122.4668521}, {"type": "node", "id": 1669812484, "lat": 37.8699874, "lon": -122.2926695, "tags": {"cuisine": "pakistani", "name": "Indus Foods", "shop": "convenience"}}, {"type": "node", "id": 1713269600, "lat": 37.7515955, "lon": -122.4276745, "tags": {"addr:city": "San Francisco", "addr:housenumber": "3807", "addr:street": "24th Street", "name": "Shufat Market", "shop": "convenience"}}, {"type": "node", "id": 1769223516, "lat": 37.7831431, "lon": -122.4628435, "tags": {"addr:city": "San Francisco", "addr:housenumber": "330", "addr:postcode": "94118", "addr:street": "Clement Street", "name": "Genki Crepes & Mini Mart", "name:ja": "\u5143\u6c17", "outdoor_seating": "yes", "phone": "+1 415 379 6414", "shop": "convenience", "wheelchair": "yes"}}, {"type": "node", "id": 1812876857, "lat": 37.7989766, "lon": -122.2696417}, {"type": "node", "id": 1812876866, "lat": 37.7990288, "lon": -122.2697756}, {"type": "node", "id": 1812876870, "lat": 37.799057, "lon": -122.2695914}, {"type": "node", "id": 1812876871, "lat": 37.7990891, "lon": -122.2696737}, {"type": "node", "id": 1812876881, "lat": 37.7991093, "lon": -122.2697254}, {"type": "node", "id": 1823917069, "lat": 37.7975226, "lon": -122.4084387, "tags": {"name": "Best Food", "shop": "convenience"}}, {"type": "node", "id": 1837284133, "lat": 37.7764144, "lon": -122.414717, "tags": {"name": "Go Go Market & Deli", "shop": "convenience"}}, {"type": "node", "id": 1844966944, "lat": 37.7826687, "lon": -122.3933874, "tags": {"addr:housenumber": "524", "addr:street": "2nd Street", "name": "SMALL", "shop": "convenience"}}, {"type": "node", "id": 1854749247, "lat": 37.7831231, "lon": -122.4322615, "tags": {"addr:housenumber": "1462", "addr:postcode": "94115", "addr:street": "Fillmore Street", "name": "Jai Ho Indian Grocery Store", "shop": "convenience", "source": "Survey"}}, {"type": "node", "id": 1861077529, "lat": 37.7541232, "lon": -122.1524995, "tags": {"name": "Bottleneck", "shop": "convenience"}}, {"type": "node", "id": 1901868605, "lat": 37.7883249, "lon": -122.4165463, "tags": {"entrance": "yes", "name": "Sutter fine food", "shop": "convenience"}}, {"type": "node", "id": 1901868627, "lat": 37.7884667, "lon": -122.4154843, "tags": {"addr:city": "San Francisco", "addr:state": "CA", "addr:street": "Sutter Street", "name": "Yogi Food Market", "shop": "convenience", "wheelchair": "limited"}}, {"type": "node", "id": 1960941273, "lat": 37.7660309, "lon": -122.4289792, "tags": {"addr:city": "San Francisco", "addr:housenumber": "300", "addr:postcode": "94114", "addr:state": "CA", "addr:street": "Church Street", "atm": "yes", "description": "Convenience Store with a full Deli Famous mural of historic San Francisco on Church St. side In continuous operation for over 70 years", "name": "Church Street Groceteria", "opening_hours": "08:00-00:30", "shop": "convenience"}}, {"type": "node", "id": 1969279894, "lat": 37.7776794, "lon": -122.4385135, "tags": {"addr:city": "San Francisco", "addr:housenumber": "861", "addr:postcode": "94117", "addr:state": "CA", "addr:street": "Divisadero Street", "name": "Transfer Market", "shop": "convenience"}}, {"type": "node", "id": 1969282330, "lat": 37.7756716, "lon": -122.4466021, "tags": {"atm": "yes", "name": "Fulton Food Shop", "opening_hours": "Mo-Fr 08:00-23:00, Sa,Su 08:00-01:00", "shop": "convenience"}}, {"type": "node", "id": 1970075773, "lat": 37.7486631, "lon": -122.4227133, "tags": {"addr:city": "San Francisco", "addr:country": "US", "addr:housenumber": "1400", "addr:postcode": "94110", "addr:state": "CA", "addr:street": "Guerrero Street", "name": "26th & Guerrero Market", "shop": "convenience", "website": "http://www.26thandguerreromarket.com/"}}, {"type": "node", "id": 1980330799, "lat": 37.7734424, "lon": -122.4508575, "tags": {"name": "Cindy's Market", "shop": "convenience"}}, {"type": "node", "id": 1981994718, "lat": 37.7774463, "lon": -122.4419453, "tags": {"name": "McBaker Market", "shop": "convenience"}}, {"type": "node", "id": 1990692292, "lat": 37.7742525, "lon": -122.4446478, "tags": {"name": "Home Service Market", "shop": "convenience"}}, {"type": "node", "id": 2013493265, "lat": 37.9904868, "lon": -122.3353295, "tags": {"brand": "ampm", "brand:wikidata": "Q306960", "brand:wikipedia": "en:Ampm", "name": "ampm", "shop": "convenience"}}, {"type": "node", "id": 2050878746, "lat": 37.7520991, "lon": -122.4194208, "tags": {"addr:housenumber": "3347", "addr:street": "24th Street", "name": "Bartlett Market & Liquors", "shop": "convenience"}}, {"type": "node", "id": 2054075810, "lat": 37.7229089, "lon": -122.435887, "tags": {"name": "Yicks Liquor", "shop": "convenience"}}, {"type": "node", "id": 2054130279, "lat": 37.7286093, "lon": -122.431617, "tags": {"name": "Mission Silver Market", "shop": "convenience"}}, {"type": "node", "id": 2054130284, "lat": 37.736053, "lon": -122.4246298, "tags": {"name": "New College Hill Market", "shop": "convenience"}}, {"type": "node", "id": 2060252755, "lat": 37.7536039, "lon": -122.4209734, "tags": {"addr:city": "San Francisco", "addr:housenumber": "1200", "addr:street": "Valencia Street", "name": "Thanasi's Market", "shop": "convenience"}}, {"type": "node", "id": 2066866627, "lat": 37.7519723, "lon": -122.4208323, "tags": {"addr:housenumber": "1300", "addr:street": "Valencia Street", "name": "Valencia Grocery and Deli", "shop": "convenience"}}, {"type": "node", "id": 2069103495, "lat": 37.7551098, "lon": -122.4257529, "tags": {"name": "Mama's Market", "shop": "convenience"}}, {"type": "node", "id": 2071294620, "lat": 37.7976247, "lon": -122.4076211, "tags": {"name": "ABC Supermarket Inc", "shop": "convenience"}}, {"type": "node", "id": 2071294646, "lat": 37.7974117, "lon": -122.4084311, "tags": {"name": "Kin Tat Co.", "shop": "convenience", "wheelchair": "yes"}}, {"type": "node", "id": 2074158443, "lat": 37.7830743, "lon": -122.4645995, "tags": {"name": "Food 24 Market", "shop": "convenience"}}, {"type": "node", "id": 2129859148, "lat": 37.7991456, "lon": -122.4189266, "tags": {"name": "Searchlight Market", "shop": "convenience"}}, {"type": "node", "id": 2130160676, "lat": 37.7467436, "lon": -122.4137155, "tags": {"name": "Harvest Hills Market", "shop": "convenience"}}, {"type": "node", "id": 2133322197, "lat": 37.7924108, "lon": -122.4344435, "tags": {"name": "Mayflower Market", "shop": "convenience", "wheelchair": "yes"}}, {"type": "node", "id": 2133322244, "lat": 37.7925919, "lon": -122.4344765, "tags": {"name": "Gino's", "shop": "convenience"}}, {"type": "node", "id": 2148537238, "lat": 37.7564805, "lon": -122.3927992, "tags": {"amenity": "fuel", "brand": "Independent", "fuel:biodiesel": "yes", "name": "Dogpatch Biofuels", "shop": "convenience"}}, {"type": "node", "id": 2167198535, "lat": 37.7972175, "lon": -122.4219348}, {"type": "node", "id": 2167198536, "lat": 37.7972484, "lon": -122.4216856}, {"type": "node", "id": 2167198538, "lat": 37.7972576, "lon": -122.4216115}, {"type": "node", "id": 2167198540, "lat": 37.7972913, "lon": -122.4219494}, {"type": "node", "id": 2167198542, "lat": 37.7973216, "lon": -122.4217056}, {"type": "node", "id": 2167198543, "lat": 37.7973314, "lon": -122.4216262}, {"type": "node", "id": 2235910278, "lat": 37.868756, "lon": -122.267607, "tags": {"addr:city": "Berkeley", "addr:housenumber": "2233", "addr:postcode": "94704", "addr:street": "Shattuck Avenue", "fax": "+1 510 5489578", "name": "E-Z Stop Deli", "opening_hours": "Su 08:30-22:30; Mo-Th 06:30-22:30; Fr 06:30-23:30; Sa 08:30-23:30", "phone": "+1 510 5489544", "shop": "convenience", "website": "http://www.ezstopdeli.com/", "wheelchair": "yes"}}, {"type": "node", "id": 2248273325, "lat": 37.7806174, "lon": -122.4689908, "tags": {"addr:housenumber": "4625", "addr:street": "Geary Boulevard", "name": "First Korean Market", "name:ko": "\uc11c\uc6b8\uc2dd\ud488", "opening_hours": "Mo-Su 09:00-19:00", "shop": "convenience"}}, {"type": "node", "id": 2249350711, "lat": 37.7365394, "lon": -122.197451}, {"type": "node", "id": 2249350712, "lat": 37.7365524, "lon": -122.1975818}, {"type": "node", "id": 2249350718, "lat": 37.7367167, "lon": -122.1974227}, {"type": "node", "id": 2249350719, "lat": 37.7367297, "lon": -122.1975535}, {"type": "node", "id": 2253307451, "lat": 37.9257544, "lon": -122.3339636, "tags": {"addr:housenumber": "3701", "addr:postcode": "94804", "addr:street": "Cutting Boulevard", "name": "Valero Food Shop", "shop": "convenience"}}, {"type": "node", "id": 2289188129, "lat": 37.7732209, "lon": -122.4085345}, {"type": "node", "id": 2289188140, "lat": 37.7733301, "lon": -122.4086666}, {"type": "node", "id": 2289188142, "lat": 37.7733764, "lon": -122.4086053}, {"type": "node", "id": 2317902072, "lat": 37.8139754, "lon": -122.2687143, "tags": {"name": "Telegraph Quality Market", "shop": "convenience"}}, {"type": "node", "id": 2328648583, "lat": 37.8051337, "lon": -122.2498803, "tags": {"addr:city": "Oakland", "addr:housename": "QuickStop Market", "addr:postcode": "94610", "addr:state": "CA", "addr:street": "Merritt Avenue", "name": "QuikStop Liquor", "shop": "convenience", "wheelchair": "yes"}}, {"type": "node", "id": 2338785260, "lat": 37.798471, "lon": -122.425542, "tags": {"name": "Sherman Market", "shop": "convenience"}}, {"type": "node", "id": 2338836918, "lat": 37.771113, "lon": -122.43719, "tags": {"name": "Superette Market", "shop": "convenience"}}, {"type": "node", "id": 2339793964, "lat": 37.8277891, "lon": -122.2513742}, {"type": "node", "id": 2339793967, "lat": 37.8277033, "lon": -122.2512763}, {"type": "node", "id": 2339793969, "lat": 37.8278039, "lon": -122.2511422}, {"type": "node", "id": 2339793971, "lat": 37.8278887, "lon": -122.2512427}, {"type": "node", "id": 2341540436, "lat": 37.8288008, "lon": -122.2557223}, {"type": "node", "id": 2341540437, "lat": 37.8286854, "lon": -122.2557867}, {"type": "node", "id": 2341540438, "lat": 37.8285593, "lon": -122.2554474}, {"type": "node", "id": 2341540439, "lat": 37.8286938, "lon": -122.2553683}, {"type": "node", "id": 2341540440, "lat": 37.8287541, "lon": -122.2555207}, {"type": "node", "id": 2341540441, "lat": 37.8287298, "lon": -122.2555346}, {"type": "node", "id": 2352103113, "lat": 37.8387592, "lon": -122.2690555, "tags": {"name": "East Bay Liquors", "shop": "convenience"}}, {"type": "node", "id": 2359850507, "lat": 37.8231392, "lon": -122.2074613}, {"type": "node", "id": 2359850510, "lat": 37.8230545, "lon": -122.2073337}, {"type": "node", "id": 2359850513, "lat": 37.8229855, "lon": -122.2074071}, {"type": "node", "id": 2359850515, "lat": 37.8230702, "lon": -122.2075347}, {"type": "node", "id": 2390987804, "lat": 37.7725786, "lon": -122.2552713, "tags": {"name": "Grand Market", "shop": "convenience"}}, {"type": "node", "id": 2405775321, "lat": 37.8069846, "lon": -122.301296, "tags": {"name": "State Market Liquor", "shop": "convenience"}}, {"type": "node", "id": 2453601864, "lat": 37.7606346, "lon": -122.3877825, "tags": {"addr:city": "San Francisco", "addr:housenumber": "600", "addr:postcode": "41907", "addr:state": "CA", "addr:street": "20th Street", "name": "Jim's Smoke Shop & Deli", "opening_hours": "05:00-17:00", "shop": "convenience"}}, {"type": "node", "id": 2462422643, "lat": 37.7228247, "lon": -122.1567466}, {"type": "node", "id": 2462422645, "lat": 37.7226751, "lon": -122.1566446}, {"type": "node", "id": 2462422647, "lat": 37.7226433, "lon": -122.1567192}, {"type": "node", "id": 2462423859, "lat": 37.7227928, "lon": -122.1568212}, {"type": "node", "id": 2507796541, "lat": 37.7774953, "lon": -122.4047659}, {"type": "node", "id": 2507796544, "lat": 37.7774522, "lon": -122.4049716}, {"type": "node", "id": 2507796547, "lat": 37.7796446, "lon": -122.4031934}, {"type": "node", "id": 2507796648, "lat": 37.7796929, "lon": -122.4032535}, {"type": "node", "id": 2507796735, "lat": 37.7776715, "lon": -122.4047506}, {"type": "node", "id": 2507796766, "lat": 37.777573, "lon": -122.4048692}, {"type": "node", "id": 2507796775, "lat": 37.7778142, "lon": -122.4049456}, {"type": "node", "id": 2507796826, "lat": 37.7798354, "lon": -122.4030706}, {"type": "node", "id": 2507796875, "lat": 37.7775722, "lon": -122.4052452}, {"type": "node", "id": 2507796983, "lat": 37.7773915, "lon": -122.4048908}, {"type": "node", "id": 2507797028, "lat": 37.7774065, "lon": -122.4050267}, {"type": "node", "id": 2525724761, "lat": 37.7968023, "lon": -122.4238896, "tags": {"addr:city": "San Francisco", "addr:housenumber": "2301", "addr:postcode": "94123", "addr:street": "Van Ness Avenue", "name": "Van Ness Vallejo Market", "shop": "convenience", "source": "Local Knowledge"}}, {"type": "node", "id": 2548177340, "lat": 37.7732371, "lon": -122.4085542}, {"type": "node", "id": 2557860419, "lat": 37.8618, "lon": -122.253404, "tags": {"addr:city": "Berkeley", "addr:housenumber": "2707", "addr:street": "College Avenue", "name": "Derby Food Center", "opening_hours": "Mo-Sa 09:00-23:00; Su 09:00-22:00", "shop": "convenience"}}, {"type": "node", "id": 2616701810, "lat": 37.7895264, "lon": -122.400709, "tags": {"brand": "Amazon Fresh", "brand:wikidata": "Q27676067", "name": "Amazon Go", "shop": "convenience"}}, {"type": "node", "id": 2624387882, "lat": 37.7377061, "lon": -122.1973972}, {"type": "node", "id": 2624387883, "lat": 37.7374042, "lon": -122.197448}, {"type": "node", "id": 2624387884, "lat": 37.7374489, "lon": -122.1976425}, {"type": "node", "id": 2624387885, "lat": 37.7377148, "lon": -122.197472}, {"type": "node", "id": 2625276230, "lat": 37.7627767, "lon": -122.4344896, "tags": {"addr:city": "San Francisco", "addr:housenumber": "2399", "addr:postcode": "94114", "addr:street": "Market Street", "name": "Chevron Extra Mile", "phone": "1-415-621-2570", "shop": "convenience"}}, {"type": "node", "id": 2625910451, "lat": 37.7797872, "lon": -122.4030105}, {"type": "node", "id": 2626609168, "lat": 37.7507947, "lon": -122.4181761, "tags": {"addr:city": "San Francisco", "addr:housenumber": "2899", "addr:street": "Mission Street", "name": "Golden Gate Market", "shop": "convenience"}}, {"type": "node", "id": 2627661184, "lat": 37.7510149, "lon": -122.4141343, "tags": {"addr:city": "San Francisco", "addr:housenumber": "2898", "addr:postcode": "94110", "addr:street": "Folsom Street", "name": "R Image Market", "shop": "convenience"}}, {"type": "node", "id": 2630773035, "lat": 37.7681701, "lon": -122.2330019}, {"type": "node", "id": 2630773036, "lat": 37.7682667, "lon": -122.2329221}, {"type": "node", "id": 2630773037, "lat": 37.7682864, "lon": -122.2329624}, {"type": "node", "id": 2630773038, "lat": 37.7683043, "lon": -122.2329477}, {"type": "node", "id": 2630773039, "lat": 37.7683472, "lon": -122.2330349}, {"type": "node", "id": 2630773040, "lat": 37.7683292, "lon": -122.2330488}, {"type": "node", "id": 2630773041, "lat": 37.7683472, "lon": -122.2330839}, {"type": "node", "id": 2630773042, "lat": 37.7682505, "lon": -122.233163}, {"type": "node", "id": 2631900254, "lat": 37.7685972, "lon": -122.239882}, {"type": "node", "id": 2631900255, "lat": 37.7684929, "lon": -122.2399555}, {"type": "node", "id": 2631900256, "lat": 37.7685348, "lon": -122.2400508}, {"type": "node", "id": 2631900257, "lat": 37.7686391, "lon": -122.2399773}, {"type": "node", "id": 2631900262, "lat": 37.7690438, "lon": -122.2394964}, {"type": "node", "id": 2631900263, "lat": 37.7690092, "lon": -122.2394142}, {"type": "node", "id": 2631900265, "lat": 37.7689416, "lon": -122.2394278}, {"type": "node", "id": 2631900266, "lat": 37.7688363, "lon": -122.2394987}, {"type": "node", "id": 2641796338, "lat": 37.746869, "lon": -122.4034532}, {"type": "node", "id": 2641796342, "lat": 37.7467752, "lon": -122.4032445}, {"type": "node", "id": 2641796345, "lat": 37.7467986, "lon": -122.4034651}, {"type": "node", "id": 2641796354, "lat": 37.7468448, "lon": -122.4032309}, {"type": "node", "id": 2641796518, "lat": 37.7425116, "lon": -122.4051507}, {"type": "node", "id": 2641796520, "lat": 37.742408, "lon": -122.4052252}, {"type": "node", "id": 2641796521, "lat": 37.7424188, "lon": -122.405249}, {"type": "node", "id": 2641796523, "lat": 37.7425223, "lon": -122.4051746}, {"type": "node", "id": 2653318511, "lat": 37.7470342, "lon": -122.4183254}, {"type": "node", "id": 2653318512, "lat": 37.7467972, "lon": -122.4184109}, {"type": "node", "id": 2653777904, "lat": 37.7920214, "lon": -122.4158192}, {"type": "node", "id": 2653777906, "lat": 37.7920223, "lon": -122.4158128}, {"type": "node", "id": 2653777920, "lat": 37.7920381, "lon": -122.4156935}, {"type": "node", "id": 2653777925, "lat": 37.7920424, "lon": -122.4156611}, {"type": "node", "id": 2653777933, "lat": 37.7920545, "lon": -122.4155699}, {"type": "node", "id": 2653777943, "lat": 37.7920588, "lon": -122.4155374}, {"type": "node", "id": 2653777980, "lat": 37.7920912, "lon": -122.4158341}, {"type": "node", "id": 2653778014, "lat": 37.7921147, "lon": -122.4155493}, {"type": "node", "id": 2653778017, "lat": 37.7921158, "lon": -122.415541}, {"type": "node", "id": 2653778037, "lat": 37.7921298, "lon": -122.415544}, {"type": "node", "id": 2655541785, "lat": 37.7765595, "lon": -122.4760759, "tags": {"addr:city": "San Francisco", "addr:housenumber": "1601", "addr:postcode": "94121", "addr:street": "Balboa Street", "name": "17th & Balboa Market", "opening_hours": "Mo-Th 10:00-20:30; Fr-Sa 10:00-21:00; Su 10:00-20:30", "shop": "convenience"}}, {"type": "node", "id": 2657595551, "lat": 37.7611618, "lon": -122.4247244}, {"type": "node", "id": 2657595554, "lat": 37.7611667, "lon": -122.4246345}, {"type": "node", "id": 2657595567, "lat": 37.7612172, "lon": -122.4247292}, {"type": "node", "id": 2657595570, "lat": 37.7612255, "lon": -122.4246396}, {"type": "node", "id": 2657595608, "lat": 37.7614294, "lon": -122.4247478}, {"type": "node", "id": 2657595610, "lat": 37.7614343, "lon": -122.4246579}, {"type": "node", "id": 2669007999, "lat": 37.7678022, "lon": -122.4293124}, {"type": "node", "id": 2669008000, "lat": 37.7678028, "lon": -122.4293033}, {"type": "node", "id": 2669008004, "lat": 37.7678071, "lon": -122.429231}, {"type": "node", "id": 2669008006, "lat": 37.7678074, "lon": -122.4292254}, {"type": "node", "id": 2669008007, "lat": 37.7678489, "lon": -122.4292436}, {"type": "node", "id": 2669008008, "lat": 37.7678497, "lon": -122.4292294}, {"type": "node", "id": 2669008010, "lat": 37.7678849, "lon": -122.4293202}, {"type": "node", "id": 2669008017, "lat": 37.767953, "lon": -122.4292535}, {"type": "node", "id": 2669008018, "lat": 37.7679537, "lon": -122.4292409}, {"type": "node", "id": 2669008026, "lat": 37.7679738, "lon": -122.4293286}, {"type": "node", "id": 2669008027, "lat": 37.767975, "lon": -122.4292429}, {"type": "node", "id": 2669008030, "lat": 37.7679781, "lon": -122.4292558}, {"type": "node", "id": 2669008032, "lat": 37.7679788, "lon": -122.4292432}, {"type": "node", "id": 2669008049, "lat": 37.7681578, "lon": -122.4291711}, {"type": "node", "id": 2677121914, "lat": 37.8000011, "lon": -122.4057771}, {"type": "node", "id": 2677121915, "lat": 37.8000019, "lon": -122.405784}, {"type": "node", "id": 2677121916, "lat": 37.8000026, "lon": -122.40577}, {"type": "node", "id": 2677121917, "lat": 37.8000059, "lon": -122.4057652}, {"type": "node", "id": 2677121918, "lat": 37.800006, "lon": -122.4057952}, {"type": "node", "id": 2677121919, "lat": 37.8000102, "lon": -122.4058027}, {"type": "node", "id": 2677121920, "lat": 37.8000133, "lon": -122.4057611}, {"type": "node", "id": 2677121921, "lat": 37.8000174, "lon": -122.4058072}, {"type": "node", "id": 2677121922, "lat": 37.8000228, "lon": -122.4058067}, {"type": "node", "id": 2677121924, "lat": 37.8000313, "lon": -122.4056594}, {"type": "node", "id": 2677121927, "lat": 37.8000361, "lon": -122.4058015}, {"type": "node", "id": 2677121940, "lat": 37.8000649, "lon": -122.4057112}, {"type": "node", "id": 2677121944, "lat": 37.8000703, "lon": -122.405667}, {"type": "node", "id": 2677121959, "lat": 37.8000949, "lon": -122.405813}, {"type": "node", "id": 2677121960, "lat": 37.8000991, "lon": -122.4058228}, {"type": "node", "id": 2677121963, "lat": 37.8001047, "lon": -122.405719}, {"type": "node", "id": 2677121964, "lat": 37.8001102, "lon": -122.4056749}, {"type": "node", "id": 2677121967, "lat": 37.800121, "lon": -122.4058272}, {"type": "node", "id": 2677121977, "lat": 37.800144, "lon": -122.4056884}, {"type": "node", "id": 2704703748, "lat": 37.7970779, "lon": -122.4272116, "tags": {"addr:city": "San Francisco", "addr:housenumber": "2568", "addr:postcode": "94123", "addr:street": "Gough Street", "name": "Blue Fog Market", "opening_hours": "Su-Th 07:00-21:00; Fr-Sa 08:00-21:00", "phone": "(415)931-9331", "shop": "convenience", "website": "https://bluefogmarket.com/"}}, {"type": "node", "id": 2731452333, "lat": 37.7650807, "lon": -122.4768755}, {"type": "node", "id": 2731452338, "lat": 37.7651028, "lon": -122.476705}, {"type": "node", "id": 2731452405, "lat": 37.7652947, "lon": -122.4768913}, {"type": "node", "id": 2731452409, "lat": 37.7652998, "lon": -122.4767129}, {"type": "node", "id": 2741227079, "lat": 37.8031539, "lon": -122.2349028}, {"type": "node", "id": 2746683702, "lat": 37.7685735, "lon": -122.2194206}, {"type": "node", "id": 2746683704, "lat": 37.7685677, "lon": -122.219285}, {"type": "node", "id": 2746683706, "lat": 37.7683209, "lon": -122.2193017}, {"type": "node", "id": 2746683708, "lat": 37.7683266, "lon": -122.2194373}, {"type": "node", "id": 2749142063, "lat": 37.8074691, "lon": -122.2225262}, {"type": "node", "id": 2749142065, "lat": 37.8074836, "lon": -122.2225374}, {"type": "node", "id": 2749142073, "lat": 37.8075364, "lon": -122.222386}, {"type": "node", "id": 2749142078, "lat": 37.8076045, "lon": -122.2226303}, {"type": "node", "id": 2749142082, "lat": 37.8076134, "lon": -122.2226372}, {"type": "node", "id": 2749142087, "lat": 37.8076559, "lon": -122.2224786}, {"type": "node", "id": 2749142091, "lat": 37.8076803, "lon": -122.2224977}, {"type": "node", "id": 2752859460, "lat": 37.8123383, "lon": -122.2615296}, {"type": "node", "id": 2752859461, "lat": 37.8123259, "lon": -122.2612802}, {"type": "node", "id": 2752859462, "lat": 37.8124209, "lon": -122.2615231}, {"type": "node", "id": 2752859463, "lat": 37.8124373, "lon": -122.2614756}, {"type": "node", "id": 2752859465, "lat": 37.812431, "lon": -122.2613197}, {"type": "node", "id": 2752859466, "lat": 37.8124093, "lon": -122.2612769}, {"type": "node", "id": 2758592053, "lat": 37.7467773, "lon": -122.4183109}, {"type": "node", "id": 2758592054, "lat": 37.7467805, "lon": -122.4183441}, {"type": "node", "id": 2758592055, "lat": 37.7467829, "lon": -122.4183662}, {"type": "node", "id": 2758592056, "lat": 37.7467862, "lon": -122.4184015}, {"type": "node", "id": 2758592057, "lat": 37.7467867, "lon": -122.4183037}, {"type": "node", "id": 2758592058, "lat": 37.7467872, "lon": -122.4183086}, {"type": "node", "id": 2758592060, "lat": 37.7467906, "lon": -122.418342}, {"type": "node", "id": 2758592061, "lat": 37.7467928, "lon": -122.4183647}, {"type": "node", "id": 2758592062, "lat": 37.7467962, "lon": -122.4184}, {"type": "node", "id": 2758592075, "lat": 37.7468557, "lon": -122.4182878}, {"type": "node", "id": 2758592076, "lat": 37.7468582, "lon": -122.4183049}, {"type": "node", "id": 2758592078, "lat": 37.7468639, "lon": -122.4183862}, {"type": "node", "id": 2758592090, "lat": 37.7468984, "lon": -122.4183737}, {"type": "node", "id": 2758592105, "lat": 37.7469472, "lon": -122.418356}, {"type": "node", "id": 2758592112, "lat": 37.7469584, "lon": -122.4182689}, {"type": "node", "id": 2758592113, "lat": 37.7469602, "lon": -122.4182806}, {"type": "node", "id": 2758592140, "lat": 37.747023, "lon": -122.4182535}, {"type": "node", "id": 2795035616, "lat": 37.7810499, "lon": -122.4716039}, {"type": "node", "id": 2795035620, "lat": 37.7810588, "lon": -122.4713799}, {"type": "node", "id": 2795035629, "lat": 37.7810946, "lon": -122.4713768}, {"type": "node", "id": 2795035630, "lat": 37.7810951, "lon": -122.471365}, {"type": "node", "id": 2795035633, "lat": 37.7810962, "lon": -122.4716125}, {"type": "node", "id": 2795035636, "lat": 37.7811104, "lon": -122.4713784}, {"type": "node", "id": 2795035637, "lat": 37.7811109, "lon": -122.471366}, {"type": "node", "id": 2795035658, "lat": 37.781138, "lon": -122.4716095}, {"type": "node", "id": 2795035668, "lat": 37.7811469, "lon": -122.4713855}, {"type": "node", "id": 2811867832, "lat": 37.763115, "lon": -122.4788297}, {"type": "node", "id": 2811867833, "lat": 37.7631186, "lon": -122.4787448}, {"type": "node", "id": 2811867867, "lat": 37.7633918, "lon": -122.4788482}, {"type": "node", "id": 2811867868, "lat": 37.7633953, "lon": -122.4787633}, {"type": "node", "id": 2814743193, "lat": 37.8019578, "lon": -122.2315497}, {"type": "node", "id": 2814743194, "lat": 37.8020265, "lon": -122.2317452}, {"type": "node", "id": 2814743196, "lat": 37.8021355, "lon": -122.231606}, {"type": "node", "id": 2819256151, "lat": 37.773267, "lon": -122.435627, "tags": {"addr:housenumber": "999", "addr:street": "Oak Street", "name": "Oak Fair Market", "shop": "convenience"}}, {"type": "node", "id": 2869308732, "lat": 37.7615674, "lon": -122.4489819, "tags": {"addr:city": "San Francisco", "addr:housenumber": "1400", "addr:postcode": "94117", "addr:street": "Cole Street", "name": "Adel's Wine Cellar", "shop": "convenience"}}, {"type": "node", "id": 2899179685, "lat": 37.780742, "lon": -122.474214}, {"type": "node", "id": 2899179686, "lat": 37.780747, "lon": -122.4741054}, {"type": "node", "id": 2899179949, "lat": 37.780951, "lon": -122.4742293}, {"type": "node", "id": 2899179972, "lat": 37.781005, "lon": -122.4742332}, {"type": "node", "id": 2899179975, "lat": 37.78101, "lon": -122.4741246}, {"type": "node", "id": 2899255514, "lat": 37.7613291, "lon": -122.477465}, {"type": "node", "id": 2899255516, "lat": 37.761333, "lon": -122.477374}, {"type": "node", "id": 2899255557, "lat": 37.7614532, "lon": -122.4774736}, {"type": "node", "id": 2899255558, "lat": 37.7614572, "lon": -122.4773825}, {"type": "node", "id": 2913922822, "lat": 37.9007548, "lon": -122.3095232}, {"type": "node", "id": 2913922823, "lat": 37.9007956, "lon": -122.3095519}, {"type": "node", "id": 2913922824, "lat": 37.900811, "lon": -122.3093945}, {"type": "node", "id": 2913922827, "lat": 37.9008519, "lon": -122.3094231}, {"type": "node", "id": 2924952137, "lat": 37.8386443, "lon": -122.2798297, "tags": {"addr:city": "Oakland", "addr:housenumber": "1049", "addr:postcode": "94608", "addr:street": "55th Street", "name": "SMS Market", "opening_hours": "08:00-21:00", "shop": "convenience"}}, {"type": "node", "id": 2929386085, "lat": 37.7292833, "lon": -122.3864369}, {"type": "node", "id": 2929386091, "lat": 37.7292975, "lon": -122.3864244}, {"type": "node", "id": 2929386095, "lat": 37.7293236, "lon": -122.3865099}, {"type": "node", "id": 2929386098, "lat": 37.7293548, "lon": -122.3863738}, {"type": "node", "id": 2929386099, "lat": 37.7293705, "lon": -122.3863598}, {"type": "node", "id": 2929386100, "lat": 37.7293726, "lon": -122.3863636}, {"type": "node", "id": 2929386101, "lat": 37.7293806, "lon": -122.3863641}, {"type": "node", "id": 2929386102, "lat": 37.7293884, "lon": -122.3863921}, {"type": "node", "id": 2929386103, "lat": 37.7293903, "lon": -122.3863816}, {"type": "node", "id": 2929386104, "lat": 37.7293908, "lon": -122.3863965}, {"type": "node", "id": 2929386105, "lat": 37.729399, "lon": -122.3863971}, {"type": "node", "id": 2929386106, "lat": 37.729408, "lon": -122.3864275}, {"type": "node", "id": 2929386107, "lat": 37.7294093, "lon": -122.3864158}, {"type": "node", "id": 2929386108, "lat": 37.7294109, "lon": -122.3864328}, {"type": "node", "id": 2934706509, "lat": 37.7286518, "lon": -122.439901}, {"type": "node", "id": 2934706519, "lat": 37.7287086, "lon": -122.4398532}, {"type": "node", "id": 2934706522, "lat": 37.7287419, "lon": -122.4400722}, {"type": "node", "id": 2934706523, "lat": 37.7287515, "lon": -122.4400905}, {"type": "node", "id": 2934706525, "lat": 37.7288035, "lon": -122.4400335}, {"type": "node", "id": 2934706526, "lat": 37.7288083, "lon": -122.4400427}, {"type": "node", "id": 2956812337, "lat": 37.7908059, "lon": -122.4121671, "tags": {"addr:city": "San Francisco", "addr:housenumber": "996", "addr:postcode": "94108", "addr:street": "Pine Street", "name": "Dair's Pine-Taylor Market", "opening_hours": "08:00-22:00", "phone": "+1 415 885 0414", "shop": "convenience"}}, {"type": "node", "id": 3009487838, "lat": 37.7682232, "lon": -122.4193356, "tags": {"addr:city": "San Francisco", "addr:housenumber": "269", "addr:postcode": "94103", "addr:street": "14th Street", "name": "New Star Market", "opening_hours": "Mo-Sa 07:00-20:30; Su 08:30-17:00", "phone": "(415) 861-0723", "shop": "convenience"}}, {"type": "node", "id": 3009644833, "lat": 37.8026113, "lon": -122.2386958}, {"type": "node", "id": 3009644834, "lat": 37.8026601, "lon": -122.2386976}, {"type": "node", "id": 3009644835, "lat": 37.8026629, "lon": -122.2384788}, {"type": "node", "id": 3009644836, "lat": 37.8027045, "lon": -122.2384947}, {"type": "node", "id": 3011004969, "lat": 37.831245, "lon": -122.279769, "tags": {"addr:city": "Emeryville", "addr:housenumber": "4000", "addr:postcode": "94608", "addr:street": "San Pablo Avenue", "brand": "7-Eleven", "brand:wikidata": "Q259340", "brand:wikipedia": "en:7-Eleven", "name": "7-Eleven", "shop": "convenience"}}, {"type": "node", "id": 3067864533, "lat": 37.803113, "lon": -122.4098541, "tags": {"name": "Lombard Heights Market", "opening_hours": "Mo-Sa 07:30-21:30; Su 08:00-21:00", "shop": "convenience", "wheelchair": "no"}}, {"type": "node", "id": 3088435531, "lat": 37.758486, "lon": -122.4233281, "tags": {"name": "F & G Grocery", "shop": "convenience"}}, {"type": "node", "id": 3125407606, "lat": 37.7981793, "lon": -122.2500792, "tags": {"name": "3 Rings", "shop": "convenience"}}, {"type": "node", "id": 3125416918, "lat": 37.7994181, "lon": -122.2511467, "tags": {"addr:housenumber": "350", "name": "Carriage Trade Liquors", "phone": "1-510-444-8356", "shop": "convenience"}}, {"type": "node", "id": 3167010068, "lat": 37.8493782, "lon": -122.2655533, "tags": {"name": "Lee's Market", "shop": "convenience"}}, {"type": "node", "id": 3183085927, "lat": 37.7452193, "lon": -122.4266861, "tags": {"addr:city": "San Francisco", "addr:housenumber": "1601", "addr:street": "Church Street", "name": "Chuck's Sun Valley Grocery", "shop": "convenience"}}, {"type": "node", "id": 3189064943, "lat": 37.7969094, "lon": -122.4302557, "tags": {"addr:city": "San Francisco", "addr:housenumber": "1898", "addr:postcode": "94123", "addr:state": "CA", "addr:street": "Green Street", "name": "Green Street Market", "phone": "+1 (415) 567-6377", "shop": "convenience"}}, {"type": "node", "id": 3238659965, "lat": 37.7916503, "lon": -122.4190711, "tags": {"addr:city": "San Francisco", "addr:housenumber": "1496", "addr:postcode": "94109", "addr:state": "CA", "addr:street": "Larkin Street", "name": "Larkin Corner Market", "phone": "415-441-7619", "shop": "convenience"}}, {"type": "node", "id": 3243807462, "lat": 37.7927384, "lon": -122.4225661, "tags": {"addr:city": "San Francisco", "addr:housenumber": "1840", "addr:postcode": "94109", "addr:state": "CA", "addr:street": "Van Ness Avenue", "name": "Van Ness Liquor Wine & Spirits", "shop": "convenience"}}, {"type": "node", "id": 3301320061, "lat": 37.7620322, "lon": -122.4664628, "tags": {"addr:city": "San Francisco", "addr:country": "US", "addr:housenumber": "401A", "addr:postcode": "94122", "addr:state": "CA", "addr:street": "Judah Street", "name": "JT Market", "shop": "convenience"}}, {"type": "node", "id": 3303358570, "lat": 37.808049, "lon": -122.413948, "tags": {"brand": "7-Eleven", "brand:wikidata": "Q259340", "brand:wikipedia": "en:7-Eleven", "name": "7-Eleven", "shop": "convenience"}}, {"type": "node", "id": 3367045177, "lat": 37.9074838, "lon": -122.3066458}, {"type": "node", "id": 3367045179, "lat": 37.9076205, "lon": -122.3063243}, {"type": "node", "id": 3367045180, "lat": 37.9076511, "lon": -122.3067573}, {"type": "node", "id": 3367045181, "lat": 37.9077874, "lon": -122.3064332}, {"type": "node", "id": 3393092803, "lat": 37.7992907, "lon": -122.2667377, "tags": {"name": "Choice Korner", "shop": "convenience"}}, {"type": "node", "id": 3455075362, "lat": 37.7847091, "lon": -122.3997558, "tags": {"addr:city": "San Francisco", "addr:housenumber": "253", "addr:street": "3rd Street", "shop": "convenience"}}, {"type": "node", "id": 3489924891, "lat": 37.7779289, "lon": -122.4382388, "tags": {"addr:city": "San Francisco", "addr:housenumber": "1598", "addr:postcode": "94117", "addr:state": "CA", "addr:street": "McAllister Street", "name": "Save More Liquor and Grocery", "shop": "convenience"}}, {"type": "node", "id": 3540104120, "lat": 37.7404899, "lon": -122.4664515, "tags": {"addr:city": "San Francisco", "addr:country": "US", "addr:housenumber": "36", "addr:postcode": "94127", "addr:state": "CA", "addr:street": "West Portal Avenue", "name": "West Portal Daily", "shop": "convenience"}}, {"type": "node", "id": 3545344096, "lat": 37.7444725, "lon": -122.4529427, "tags": {"addr:city": "San Francisco", "addr:country": "US", "addr:housenumber": "691", "addr:postcode": "94127", "addr:state": "CA", "addr:street": "Portola Drive", "name": "Miraloma Liquors", "shop": "convenience"}}, {"type": "node", "id": 3559573562, "lat": 37.7404952, "lon": -122.4659263, "tags": {"addr:city": "San Francisco", "addr:country": "US", "addr:housenumber": "25", "addr:postcode": "94127", "addr:state": "CA", "addr:street": "West Portal Avenue", "name": "Eezy Freezy", "opening_hours": "Mo-Su 08:00-23:00", "shop": "convenience"}}, {"type": "node", "id": 3642082214, "lat": 37.7872906, "lon": -122.4009673, "tags": {"addr:city": "San Francisco", "addr:housenumber": "644", "addr:postcode": "94105", "addr:state": "CA", "addr:street": "Mission Street", "brand": "7-Eleven", "brand:wikidata": "Q259340", "brand:wikipedia": "en:7-Eleven", "name": "7-Eleven", "shop": "convenience", "wheelchair": "yes"}}, {"type": "node", "id": 3648686275, "lat": 37.7841613, "lon": -122.4175749, "tags": {"addr:city": "San Francisco", "addr:housenumber": "687", "addr:postcode": "94109", "addr:state": "CA", "addr:street": "Ellis Street", "check_date": "2021-08-11", "name": "Rainbow Market & Deli", "shop": "convenience"}}, {"type": "node", "id": 3657172986, "lat": 37.7628046, "lon": -122.4661178, "tags": {"addr:city": "San Francisco", "addr:country": "US", "addr:housenumber": "1368", "addr:postcode": "94122", "addr:state": "CA", "addr:street": "9th Avenue", "name": "Man Hing Market", "shop": "convenience"}}, {"type": "node", "id": 3658311027, "lat": 37.7638269, "lon": -122.4683007, "tags": {"addr:city": "San Francisco", "addr:country": "US", "addr:housenumber": "951", "addr:postcode": "94122", "addr:state": "CA", "addr:street": "Irving Street", "name": "Eddy's Market", "shop": "convenience"}}, {"type": "node", "id": 3663976017, "lat": 37.755278, "lon": -122.4230438, "tags": {"addr:city": "San Francisco", "addr:housenumber": "3398", "addr:street": "22nd Street", "name": "Guerrero Market", "shop": "convenience"}}, {"type": "node", "id": 3667881625, "lat": 37.7621197, "lon": -122.4649701, "tags": {"addr:city": "San Francisco", "addr:country": "US", "addr:housenumber": "1400", "addr:postcode": "94122", "addr:state": "CA", "addr:street": "8th Avenue", "name": "Stand Bi Market", "shop": "convenience"}}, {"type": "node", "id": 3686450976, "lat": 37.7641267, "lon": -122.4681063, "tags": {"addr:city": "San Francisco", "addr:country": "US", "addr:housenumber": "936", "addr:postcode": "94122", "addr:state": "CA", "addr:street": "Irving Street", "name": "Sakura", "shop": "convenience"}}, {"type": "node", "id": 3790822864, "lat": 37.7662623, "lon": -122.453074, "tags": {"addr:city": "San Francisco", "addr:housenumber": "501", "addr:postcode": "94117", "addr:state": "CA", "addr:street": "Frederick Street", "name": "Parkview Market", "shop": "convenience"}}, {"type": "node", "id": 3790823457, "lat": 37.7643959, "lon": -122.4526937, "tags": {"addr:city": "San Francisco", "addr:housenumber": "1101", "addr:postcode": "94117", "addr:state": "CA", "addr:street": "Stanyan Street", "name": "Sunny Country Foods", "shop": "convenience"}}, {"type": "node", "id": 3796357477, "lat": 37.861313, "lon": -122.2982574}, {"type": "node", "id": 3796357479, "lat": 37.8613663, "lon": -122.2979882}, {"type": "node", "id": 3796357482, "lat": 37.861498, "lon": -122.2983162}, {"type": "node", "id": 3796357483, "lat": 37.8615513, "lon": -122.298047}, {"type": "node", "id": 3798594291, "lat": 37.7967027, "lon": -122.2653248, "tags": {"name": "Hometown Donuts", "opening_hours": "Mo-Su 06:00-24:00", "shop": "convenience"}}, {"type": "node", "id": 3825993553, "lat": 37.8275202, "lon": -122.2573694}, {"type": "node", "id": 3825993554, "lat": 37.8274376, "lon": -122.2574148}, {"type": "node", "id": 3825993555, "lat": 37.8273537, "lon": -122.2572083}, {"type": "node", "id": 3825993556, "lat": 37.8274376, "lon": -122.257157}, {"type": "node", "id": 3883822524, "lat": 37.7616133, "lon": -122.4197085, "tags": {"addr:city": "San Francisco", "addr:housenumber": "2200", "addr:street": "Mission Street", "name": "Duc Loi Supermarket", "opening_hours": "Mo-Sa 08:00-20:00; Su 09:00-20:00", "phone": "415-551-1772", "shop": "convenience", "website": "http://www.ducloimarket.com"}}, {"type": "node", "id": 3899202702, "lat": 37.7651507, "lon": -122.4601078, "tags": {"addr:city": "San Francisco", "addr:country": "US", "addr:housenumber": "1251", "addr:postcode": "94122", "addr:state": "CA", "addr:street": "3rd Avenue", "name": "UC Market", "shop": "convenience"}}, {"type": "node", "id": 3927989513, "lat": 37.8041837, "lon": -122.270424, "tags": {"name": "14th Street Market", "old_name": "Kwik Kopy", "shop": "convenience", "source": "Bing", "was:shop": "copyshop"}}, {"type": "node", "id": 3927998690, "lat": 37.8055483, "lon": -122.2672438, "tags": {"name": "Howden Market", "shop": "convenience"}}, {"type": "node", "id": 3933170764, "lat": 37.8009569, "lon": -122.2761018, "tags": {"name": "African Caribbean Food Market", "shop": "convenience"}}, {"type": "node", "id": 3933385528, "lat": 37.7708838, "lon": -122.2506739, "tags": {"name": "Alameda grocery", "shop": "convenience"}}, {"type": "node", "id": 3934277180, "lat": 37.748556, "lon": -122.1739592, "tags": {"name": "La Nopalera Produce Market", "shop": "convenience"}}, {"type": "node", "id": 3967298487, "lat": 37.8038661, "lon": -122.2672048, "tags": {"name": "Hien's Market", "shop": "convenience"}}, {"type": "node", "id": 3969590468, "lat": 37.7965633, "lon": -122.4102322, "tags": {"addr:housenumber": "1301", "addr:street": "Powell Street", "name": "Powell Grocery", "shop": "convenience"}}, {"type": "node", "id": 3969606066, "lat": 37.795563, "lon": -122.4182, "tags": {"name": "Hyde & Pacific Liquors", "shop": "convenience"}}, {"type": "node", "id": 3981309957, "lat": 37.8292508, "lon": -122.2488947, "tags": {"name": "Euromix Delicatessen", "shop": "convenience"}}, {"type": "node", "id": 3981344379, "lat": 37.8065117, "lon": -122.2702049, "tags": {"name": "Both Side Convenience", "shop": "convenience"}}, {"type": "node", "id": 3988389230, "lat": 37.8002277, "lon": -122.2720143, "tags": {"name": "Park Grocery & Liquors", "shop": "convenience"}}, {"type": "node", "id": 3990935833, "lat": 37.7989322, "lon": -122.2714157, "tags": {"name": "Great Wall Co", "shop": "convenience"}}, {"type": "node", "id": 3992963292, "lat": 37.8004506, "lon": -122.2710173, "tags": {"name": "Healthy Food Center", "shop": "convenience"}}, {"type": "node", "id": 3992975569, "lat": 37.8005418, "lon": -122.2699364, "tags": {"name": "Lucky Day", "shop": "convenience"}}, {"type": "node", "id": 3998616514, "lat": 37.8132291, "lon": -122.2688537, "tags": {"name": "Saigon Market", "shop": "convenience"}}, {"type": "node", "id": 3999453472, "lat": 37.8201782, "lon": -122.2670761, "tags": {"name": "River Nile Market", "shop": "convenience"}}, {"type": "node", "id": 3999453542, "lat": 37.8178941, "lon": -122.2673094, "tags": {"name": "Zion Market", "shop": "convenience"}}, {"type": "node", "id": 4002028591, "lat": 37.7621737, "lon": -122.4631356, "tags": {"addr:housenumber": "1401", "addr:street": "6th Avenue", "amenity": "cafe", "name": "Golden Bear Trading Company", "shop": "convenience", "wheelchair": "no"}}, {"type": "node", "id": 4013865699, "lat": 37.8089562, "lon": -122.275155, "tags": {"brand": "ExtraMile", "brand:wikidata": "Q64224605", "name": "ExtraMile", "shop": "convenience"}}, {"type": "node", "id": 4014993117, "lat": 37.8047409, "lon": -122.2882564, "tags": {"name": "Green Valley Food", "shop": "convenience"}}, {"type": "node", "id": 4015832245, "lat": 37.7956969, "lon": -122.2530806}, {"type": "node", "id": 4015832246, "lat": 37.7957865, "lon": -122.2531775}, {"type": "node", "id": 4015832248, "lat": 37.7957841, "lon": -122.2533254}, {"type": "node", "id": 4015832268, "lat": 37.7956381, "lon": -122.2531676}, {"type": "node", "id": 4015833205, "lat": 37.7958011, "lon": -122.2531558}, {"type": "node", "id": 4015833273, "lat": 37.7958575, "lon": -122.2532168}, {"type": "node", "id": 4017053175, "lat": 37.793039, "lon": -122.252739, "tags": {"name": "Jackson's Liquors", "shop": "convenience"}}, {"type": "node", "id": 4017211398, "lat": 37.7968178, "lon": -122.4083185, "tags": {"addr:city": "San Francisco", "addr:housenumber": "1200", "addr:street": "Stockton Street", "name": "Wah Hing Market", "shop": "convenience"}}, {"type": "node", "id": 4018792591, "lat": 37.7632392, "lon": -122.4816392, "tags": {"addr:city": "San Francisco", "addr:housenumber": "2203", "addr:postcode": "94122", "addr:state": "CA", "addr:street": "Irving Street", "check_date": "2022-07-15", "name": "S&B Supermarket", "opening_hours": "08:30-18:30", "origin": "asian", "phone": "+1 415-665-5598", "shop": "convenience", "wheelchair": "yes"}}, {"type": "node", "id": 4018792695, "lat": 37.7632175, "lon": -122.482201, "tags": {"addr:city": "San Francisco", "addr:housenumber": "2245", "addr:postcode": "94122", "addr:state": "CA", "addr:street": "Irving Street", "name": "Heartland Healthy Food", "opening_hours": "Tu-Sa 11:00-16:00", "organic": "only", "origin": "asian", "shop": "convenience"}}, {"type": "node", "id": 4024227022, "lat": 37.7968956, "lon": -122.410289, "tags": {"addr:city": "San Francisco", "addr:housenumber": "1321 A", "addr:street": "Powell Street", "name": "Sam & Son Market", "shop": "convenience"}}, {"type": "node", "id": 4030525941, "lat": 37.7716152, "lon": -122.4352763, "tags": {"addr:housenumber": "798", "addr:street": "Haight Street", "name": "Santa Clara Natural Organic Market", "organic": "yes", "shop": "convenience"}}, {"type": "node", "id": 4033949293, "lat": 37.7786289, "lon": -122.4157915, "tags": {"name": "New York Tobacco", "shop": "convenience"}}, {"type": "node", "id": 4047373297, "lat": 37.7623886, "lon": -122.4192416, "tags": {"name": "Mi Ranchito Produce", "shop": "convenience"}}, {"type": "node", "id": 4048796116, "lat": 37.7897372, "lon": -122.2472145, "tags": {"name": "Tan A Market", "shop": "convenience"}}, {"type": "node", "id": 4049605619, "lat": 37.8100352, "lon": -122.2451436, "tags": {"name": "76 Snacks", "opening_hours": "24/7", "shop": "convenience"}}, {"type": "node", "id": 4052281990, "lat": 37.7995687, "lon": -122.2140571}, {"type": "node", "id": 4052281991, "lat": 37.7995221, "lon": -122.2138558}, {"type": "node", "id": 4052281992, "lat": 37.7993962, "lon": -122.2139024}, {"type": "node", "id": 4052281993, "lat": 37.7994428, "lon": -122.2141037}, {"type": "node", "id": 4052594554, "lat": 37.7637804, "lon": -122.416972}, {"type": "node", "id": 4052594556, "lat": 37.7639661, "lon": -122.4169061}, {"type": "node", "id": 4052594558, "lat": 37.7639608, "lon": -122.4169902}, {"type": "node", "id": 4052594559, "lat": 37.7637857, "lon": -122.4168879}, {"type": "node", "id": 4060877701, "lat": 37.7626483, "lon": -122.4196213, "tags": {"name": "Quic Qic Groceries", "shop": "convenience"}}, {"type": "node", "id": 4060877703, "lat": 37.7628614, "lon": -122.419641, "tags": {"addr:housenumber": "2130", "addr:street": "Mission Street", "name": "Mission Grocery", "shop": "convenience"}}, {"type": "node", "id": 4062451566, "lat": 37.7717188, "lon": -122.4227275, "tags": {"addr:city": "San Francisco", "addr:housenumber": "16", "addr:street": "Valencia Street", "name": "Valmar Supermarket", "shop": "convenience"}}, {"type": "node", "id": 4073832633, "lat": 37.8417916, "lon": -122.2650359, "tags": {"alcohol": "yes", "name": "Uptown Market", "shop": "convenience"}}, {"type": "node", "id": 4073967047, "lat": 37.822856, "lon": -122.277488, "tags": {"name": "5 Star Market and Deli", "shop": "convenience"}}, {"type": "node", "id": 4077374389, "lat": 37.7958949, "lon": -122.4084053, "tags": {"name": "Little Paradise", "shop": "convenience"}}, {"type": "node", "id": 4094548541, "lat": 37.7613428, "lon": -122.4767212}, {"type": "node", "id": 4094548542, "lat": 37.7613452, "lon": -122.4766407}, {"type": "node", "id": 4094548543, "lat": 37.7613639, "lon": -122.4767222}, {"type": "node", "id": 4094548544, "lat": 37.7613663, "lon": -122.4766417}, {"type": "node", "id": 4100737134, "lat": 37.794968, "lon": -122.4059112, "tags": {"addr:housenumber": "49", "addr:street": "Walter U Lum Place", "name": "Charming Sun Market Inc", "shop": "convenience"}}, {"type": "node", "id": 4100737139, "lat": 37.7945907, "lon": -122.4058471, "tags": {"name": "Jackson Produce", "shop": "convenience"}}, {"type": "node", "id": 4103856293, "lat": 37.7363615, "lon": -122.3904047, "tags": {"name": "Kennedy's Market", "shop": "convenience"}}, {"type": "node", "id": 4106923140, "lat": 37.7976215, "lon": -122.4070914, "tags": {"name": "D & G Group", "shop": "convenience"}}, {"type": "node", "id": 4113463297, "lat": 37.8712344, "lon": -122.2733874}, {"type": "node", "id": 4113463298, "lat": 37.8711294, "lon": -122.2733764}, {"type": "node", "id": 4113463300, "lat": 37.8712418, "lon": -122.2732874}, {"type": "node", "id": 4113463301, "lat": 37.8711359, "lon": -122.2732763}, {"type": "node", "id": 4113463304, "lat": 37.8712728, "lon": -122.2733912}, {"type": "node", "id": 4113463305, "lat": 37.8712789, "lon": -122.2732911}, {"type": "node", "id": 4113520597, "lat": 37.8699923, "lon": -122.2816187}, {"type": "node", "id": 4113520598, "lat": 37.8700094, "lon": -122.2814661}, {"type": "node", "id": 4113520599, "lat": 37.8699714, "lon": -122.2814594}, {"type": "node", "id": 4113520600, "lat": 37.8699543, "lon": -122.2816119}, {"type": "node", "id": 4113527626, "lat": 37.8708604, "lon": -122.2817037}, {"type": "node", "id": 4113527627, "lat": 37.870885, "lon": -122.2814991}, {"type": "node", "id": 4113527628, "lat": 37.8707718, "lon": -122.2814773}, {"type": "node", "id": 4113527629, "lat": 37.8707472, "lon": -122.2816819}, {"type": "node", "id": 4113543066, "lat": 37.8694047, "lon": -122.2870562}, {"type": "node", "id": 4113543067, "lat": 37.8693132, "lon": -122.2870393}, {"type": "node", "id": 4113543068, "lat": 37.8693385, "lon": -122.2868192}, {"type": "node", "id": 4113543069, "lat": 37.86943, "lon": -122.2868361}, {"type": "node", "id": 4131740390, "lat": 37.7880255, "lon": -122.243945, "tags": {"name": "Mekong Market", "shop": "convenience"}}, {"type": "node", "id": 4131740401, "lat": 37.7879925, "lon": -122.2438754, "tags": {"name": "International Lao Market", "shop": "convenience"}}, {"type": "node", "id": 4131740403, "lat": 37.7885088, "lon": -122.2447578, "tags": {"name": "Los Pericos Supermarket", "shop": "convenience"}}, {"type": "node", "id": 4131760048, "lat": 37.7850981, "lon": -122.2384707, "tags": {"name": "El Latino Market", "shop": "convenience"}}, {"type": "node", "id": 4134761489, "lat": 37.7811588, "lon": -122.2324804, "tags": {"name": "Jalisco Market", "shop": "convenience"}}, {"type": "node", "id": 4139137407, "lat": 37.7772518, "lon": -122.2351721, "tags": {"name": "La Barca Market", "shop": "convenience"}}, {"type": "node", "id": 4148099561, "lat": 37.7994455, "lon": -122.229048, "tags": {"brand": "Quik Stop", "brand:wikidata": "Q105141709", "name": "Quik Stop", "shop": "convenience"}}, {"type": "node", "id": 4148104235, "lat": 37.7967166, "lon": -122.2334059, "tags": {"name": "Sky Market", "shop": "convenience"}}, {"type": "node", "id": 4158402535, "lat": 37.762712, "lon": -122.1651374, "tags": {"name": "Jim's Deli and Groceries", "shop": "convenience"}}, {"type": "node", "id": 4174594161, "lat": 37.8140722, "lon": -122.2682479, "tags": {"name": "Yagerbet Market", "shop": "convenience"}}, {"type": "node", "id": 4175481291, "lat": 37.8568371, "lon": -122.253545, "tags": {"name": "Berkeley Organic Market & Deli", "opening_hours": "Mo-Su 08:00-20:00", "shop": "convenience"}}, {"type": "node", "id": 4194397360, "lat": 37.7559486, "lon": -122.1973665, "tags": {"name": "Dallaq Market", "shop": "convenience"}}, {"type": "node", "id": 4203446059, "lat": 37.7231604, "lon": -122.4534241, "tags": {"addr:housenumber": "1015", "addr:street": "Ocean Avenue", "name": "Food Mart", "shop": "convenience"}}, {"type": "node", "id": 4203446082, "lat": 37.7228532, "lon": -122.4529602, "tags": {"name": "Fast Break", "shop": "convenience"}}, {"type": "node", "id": 4220797210, "lat": 37.7774041, "lon": -122.2250543, "tags": {"name": "New Ocean Food Mart", "shop": "convenience"}}, {"type": "node", "id": 4241975784, "lat": 37.7607798, "lon": -122.419462, "tags": {"name": "Georges' Market", "shop": "convenience"}}, {"type": "node", "id": 4242961501, "lat": 37.73948, "lon": -122.407244, "tags": {"addr:housenumber": "500", "addr:street": "Bayshore Boulevard", "name": "AMS Market", "shop": "convenience"}}, {"type": "node", "id": 4284609498, "lat": 37.733379, "lon": -122.4284029, "tags": {"addr:city": "San Francisco", "addr:housenumber": "145", "addr:postcode": "94112", "addr:state": "CA", "addr:street": "Bosworth Street", "name": "New Bosworth Market", "shop": "convenience"}}, {"type": "node", "id": 4298873479, "lat": 37.8021042, "lon": -122.4093854, "tags": {"name": "Napoli Market", "shop": "convenience"}}, {"type": "node", "id": 4306833866, "lat": 37.818051, "lon": -122.2558385, "tags": {"name": "Vernon Market", "shop": "convenience"}}, {"type": "node", "id": 4316529696, "lat": 37.7940048, "lon": -122.2685751, "tags": {"name": "The Sierra Deli and Market", "shop": "convenience"}}, {"type": "node", "id": 4316570204, "lat": 37.8381129, "lon": -122.2981011}, {"type": "node", "id": 4316570220, "lat": 37.8379256, "lon": -122.2980447}, {"type": "node", "id": 4316571002, "lat": 37.8379508, "lon": -122.2979104}, {"type": "node", "id": 4316571188, "lat": 37.8381545, "lon": -122.2979717}, {"type": "node", "id": 4322166640, "lat": 37.765158, "lon": -122.4201651, "tags": {"name": "Casa Thai Market", "shop": "convenience"}}, {"type": "node", "id": 4322665804, "lat": 37.8449411, "lon": -122.2610503, "tags": {"addr:housenumber": "5830", "name": "Williams Liquor", "shop": "convenience"}}, {"type": "node", "id": 4331556518, "lat": 37.7219732, "lon": -122.4549839, "tags": {"name": "Corner Store", "shop": "convenience"}}, {"type": "node", "id": 4348866889, "lat": 37.7702985, "lon": -122.4437952, "tags": {"addr:housenumber": "1301", "addr:street": "Haight Street", "name": "Central Haight Market", "shop": "convenience", "wheelchair": "yes"}}, {"type": "node", "id": 4427822496, "lat": 37.7598573, "lon": -122.397501, "tags": {"addr:housenumber": "1607", "addr:postcode": "94107", "addr:street": "20th Street", "name": "All States Best Foods", "shop": "convenience"}}, {"type": "node", "id": 4432119627, "lat": 37.8141861, "lon": -122.245837, "tags": {"brand": "7-Eleven", "brand:wikidata": "Q259340", "brand:wikipedia": "en:7-Eleven", "name": "7-Eleven", "shop": "convenience"}}, {"type": "node", "id": 4432119629, "lat": 37.8192735, "lon": -122.2442337, "tags": {"name": "Piedmont Auto Care", "shop": "convenience"}}, {"type": "node", "id": 4454462589, "lat": 37.8101771, "lon": -122.2951919, "tags": {"name": "Family Market", "shop": "convenience"}}, {"type": "node", "id": 4505134119, "lat": 37.8763732, "lon": -122.2832523, "tags": {"addr:city": "Berkeley", "addr:housenumber": "1600", "addr:postcode": "94702", "addr:state": "CA", "addr:street": "Sacramento Street", "amenity": "social_facility", "name": "Berkeley Food Pantry", "phone": "+1 (510) 525-2280", "shop": "convenience", "social_facility": "food_bank", "social_facility:for": "underprivileged", "website": "https://www.berkeleyfoodpantry.org/", "wheelchair": "yes"}}, {"type": "node", "id": 4556360352, "lat": 37.780703, "lon": -122.4391164, "tags": {"addr:housenumber": "1201", "addr:street": "Divisadero Street", "name": "Pearl Market", "shop": "convenience"}}, {"type": "node", "id": 4561400095, "lat": 37.8146543, "lon": -122.2748224, "tags": {"name": "San Pablo Market", "shop": "convenience"}}, {"type": "node", "id": 4567956949, "lat": 37.8139712, "lon": -122.2780684, "tags": {"brand": "ampm", "brand:wikidata": "Q306960", "brand:wikipedia": "en:Ampm", "name": "ampm", "shop": "convenience"}}, {"type": "node", "id": 4571196183, "lat": 37.7806284, "lon": -122.4770735, "tags": {"addr:city": "San Francisco", "addr:housenumber": "5350", "addr:postcode": "94121", "addr:state": "CA", "addr:street": "Geary Boulevard", "name": "Europa Plus", "shop": "convenience"}}, {"type": "node", "id": 4578423704, "lat": 37.7993684, "lon": -122.4423906, "tags": {"name": "Food mart", "name:en": "Food mart", "shop": "convenience"}}, {"type": "node", "id": 4578643987, "lat": 37.8623483, "lon": -122.2809256, "tags": {"name": "BiRite Liquor", "opening_hours": "Mo-Sa 07:30-22:00; Su 08:00-21:30", "phone": "(510) 848-1298", "shop": "convenience", "wheelchair": "yes"}}, {"type": "node", "id": 4578643988, "lat": 37.8561164, "lon": -122.2798598, "tags": {"name": "Bob's Liquors", "opening_hours": "Mo-Fr, Su 08:00-01:00; Sa 08:00-00:00", "phone": "(510) 486-0547", "shop": "convenience"}}, {"type": "node", "id": 4578653090, "lat": 37.8516372, "lon": -122.2784205, "tags": {"name": "Food Town Market", "shop": "convenience"}}, {"type": "node", "id": 4611607342, "lat": 37.7797566, "lon": -122.4069396, "tags": {"name": "Yerba Buena Market", "shop": "convenience"}}, {"type": "node", "id": 4613888429, "lat": 37.8023727, "lon": -122.4250252, "tags": {"name": "Amro Market", "shop": "convenience"}}, {"type": "node", "id": 4613888436, "lat": 37.8053656, "lon": -122.4221293, "tags": {"name": "Michaelis", "shop": "convenience"}}, {"type": "node", "id": 4614039300, "lat": 37.7978842, "lon": -122.4076485, "tags": {"name": "SunMoon Market", "shop": "convenience"}}, {"type": "node", "id": 4614039301, "lat": 37.7975727, "lon": -122.4081496, "tags": {"name": "Tai Hing Market", "shop": "convenience"}}, {"type": "node", "id": 4614040397, "lat": 37.7977088, "lon": -122.4090934, "tags": {"name": "Cao Kee Market", "shop": "convenience"}}, {"type": "node", "id": 4616011734, "lat": 37.7971173, "lon": -122.4069884, "tags": {"name": "Summing Ho Trading Co.", "shop": "convenience"}}, {"type": "node", "id": 4624048568, "lat": 37.7795814, "lon": -122.4233634, "tags": {"addr:city": "San Francisco", "addr:housenumber": "691", "addr:postcode": "94102", "addr:state": "CA", "addr:street": "McAllister Street", "name": "Super Sam", "opening_hours": "Su 08:00-22:00; Mo-Th 07:30-23:00; Sa 08:00-00:00", "shop": "convenience"}}, {"type": "node", "id": 4625090829, "lat": 37.7824628, "lon": -122.4158417, "tags": {"name": "Hyde & Turk Market", "shop": "convenience"}}, {"type": "node", "id": 4625139244, "lat": 37.7819539, "lon": -122.4154431, "tags": {"addr:city": "San Francisco", "addr:housenumber": "112", "addr:state": "CA", "addr:street": "Hyde Street", "fixme": "Should names be unabbreviated?", "name": "Hyde St Gift and Snack Shop", "shop": "convenience"}}, {"type": "node", "id": 4625139247, "lat": 37.7834425, "lon": -122.4157583, "tags": {"name": "Cadillac Market", "shop": "convenience"}}, {"type": "node", "id": 4625185531, "lat": 37.783207, "lon": -122.4173545, "tags": {"name": "Fox Market", "shop": "convenience"}}, {"type": "node", "id": 4625200056, "lat": 37.7836299, "lon": -122.4160786, "tags": {"name": "New Princess Market", "opening_hours": "Mo-Su 06:00-02:00", "shop": "convenience"}}, {"type": "node", "id": 4628177738, "lat": 37.7741397, "lon": -122.4309984, "tags": {"addr:housenumber": "501", "addr:street": "Fillmore Street", "name": "Key Food Market", "shop": "convenience"}}, {"type": "node", "id": 4628441088, "lat": 37.7864467, "lon": -122.416346, "tags": {"addr:city": "San Francisco", "addr:housenumber": "798", "addr:state": "CA", "addr:street": "Geary Street", "name": "Geary & Hyde Market", "shop": "convenience"}}, {"type": "node", "id": 4628442789, "lat": 37.7852604, "lon": -122.4164164, "tags": {"name": "Hyde & O'Farrell Market", "shop": "convenience"}}, {"type": "node", "id": 4628615917, "lat": 37.7867497, "lon": -122.419776, "tags": {"addr:city": "San Francisco", "addr:housenumber": "1042", "addr:state": "CA", "addr:street": "Polk Street", "name": "Green Apple Market", "shop": "convenience"}}, {"type": "node", "id": 4631708920, "lat": 37.7850021, "lon": -122.412688, "tags": {"addr:city": "San Francisco", "addr:housenumber": "396", "addr:state": "CA", "addr:street": "Ellis Street", "alt_name": "Ellis Produce;The Ellis Food Center;Young-Ellis Produce", "fixme": "Double check address. Could be 396 or 398", "name": "Young-Ellis Food Center", "shop": "convenience"}}, {"type": "node", "id": 4631727981, "lat": 37.7916382, "lon": -122.4056942, "tags": {"name": "Chinatown Bargain Depot", "shop": "convenience"}}, {"type": "node", "id": 4631831950, "lat": 37.8006863, "lon": -122.4259805, "tags": {"name": "Franklin Market", "shop": "convenience"}}, {"type": "node", "id": 4637572294, "lat": 37.784101, "lon": -122.4144684, "tags": {"cafe": "yes", "name": "Kim Huong", "shop": "convenience"}}, {"type": "node", "id": 4637572302, "lat": 37.7866129, "lon": -122.4133713, "tags": {"addr:city": "San Francisco", "addr:housenumber": "603", "addr:state": "CA", "addr:street": "Geary Street", "description": "Indian & Pakistan groceries", "name": "Salama Bazaar", "origin": "indian;pakistani", "phone": "+1 415 8007698", "shop": "convenience"}}, {"type": "node", "id": 4675248693, "lat": 37.811905, "lon": -122.2822604}, {"type": "node", "id": 4675248694, "lat": 37.8118977, "lon": -122.2822288}, {"type": "node", "id": 4675248695, "lat": 37.8117866, "lon": -122.2820041}, {"type": "node", "id": 4675248696, "lat": 37.811843, "lon": -122.2819833}, {"type": "node", "id": 4675248697, "lat": 37.8117849, "lon": -122.2819964}, {"type": "node", "id": 4675248698, "lat": 37.8118412, "lon": -122.2819756}, {"type": "node", "id": 4675248699, "lat": 37.8117662, "lon": -122.2820912}, {"type": "node", "id": 4675248700, "lat": 37.8117592, "lon": -122.2820937}, {"type": "node", "id": 4675248701, "lat": 37.8117878, "lon": -122.2821857}, {"type": "node", "id": 4675248702, "lat": 37.811781, "lon": -122.2821883}, {"type": "node", "id": 4675909552, "lat": 37.8397503, "lon": -122.2694471, "tags": {"addr:housenumber": "5442", "name": "Kings Market", "shop": "convenience"}}, {"type": "node", "id": 4684193486, "lat": 37.8476317, "lon": -122.2614119}, {"type": "node", "id": 4684193487, "lat": 37.8477583, "lon": -122.2613951}, {"type": "node", "id": 4684193488, "lat": 37.8477531, "lon": -122.2613324}, {"type": "node", "id": 4684193489, "lat": 37.8476265, "lon": -122.2613492}, {"type": "node", "id": 4695800823, "lat": 37.8466271, "lon": -122.2729395}, {"type": "node", "id": 4695801043, "lat": 37.8464884, "lon": -122.2730088}, {"type": "node", "id": 4695802141, "lat": 37.8465562, "lon": -122.2729698}, {"type": "node", "id": 4695805982, "lat": 37.8465809, "lon": -122.2729308}, {"type": "node", "id": 4695806772, "lat": 37.8464811, "lon": -122.2730708}, {"type": "node", "id": 4695807248, "lat": 37.8465682, "lon": -122.2729519}, {"type": "node", "id": 4695812832, "lat": 37.8466089, "lon": -122.2730948}, {"type": "node", "id": 4695813251, "lat": 37.8465211, "lon": -122.2729994}, {"type": "node", "id": 4703329419, "lat": 37.7974048, "lon": -122.2052213}, {"type": "node", "id": 4705365975, "lat": 37.8031496, "lon": -122.2349301}, {"type": "node", "id": 4705366341, "lat": 37.8020525, "lon": -122.2420405}, {"type": "node", "id": 4705368321, "lat": 37.8020433, "lon": -122.2418925}, {"type": "node", "id": 4705369403, "lat": 37.8021476, "lon": -122.2419184}, {"type": "node", "id": 4705369601, "lat": 37.8021046, "lon": -122.2418241}, {"type": "node", "id": 4705370351, "lat": 37.8020227, "lon": -122.2420335}, {"type": "node", "id": 4705370585, "lat": 37.8021299, "lon": -122.2420586}, {"type": "node", "id": 4705375118, "lat": 37.8021226, "lon": -122.2418783}, {"type": "node", "id": 4705376735, "lat": 37.8031501, "lon": -122.2350107}, {"type": "node", "id": 4705376967, "lat": 37.8021726, "lon": -122.2419242}, {"type": "node", "id": 4705377169, "lat": 37.8031624, "lon": -122.2349333}, {"type": "node", "id": 4705377601, "lat": 37.8021248, "lon": -122.2420933}, {"type": "node", "id": 4705379449, "lat": 37.8021522, "lon": -122.2420638}, {"type": "node", "id": 4705383444, "lat": 37.8020978, "lon": -122.2418727}, {"type": "node", "id": 4705384161, "lat": 37.8031374, "lon": -122.2350074}, {"type": "node", "id": 4705384526, "lat": 37.8020475, "lon": -122.2420752}, {"type": "node", "id": 4705384625, "lat": 37.802091, "lon": -122.241821}, {"type": "node", "id": 4706976488, "lat": 37.8020377, "lon": -122.2314701}, {"type": "node", "id": 4755628605, "lat": 37.7851234, "lon": -122.4647446, "tags": {"name": "Park Presidio Liquors", "opening_hours": "Mo-Su 08:00-23:00", "shop": "convenience"}}, {"type": "node", "id": 4772813998, "lat": 37.9007764, "lon": -122.3099415}, {"type": "node", "id": 4772816938, "lat": 37.9007609, "lon": -122.3100415}, {"type": "node", "id": 4772817379, "lat": 37.9006885, "lon": -122.3100693}, {"type": "node", "id": 4772817585, "lat": 37.9007647, "lon": -122.3100424}, {"type": "node", "id": 4772817921, "lat": 37.9007566, "lon": -122.3100952}, {"type": "node", "id": 4812135134, "lat": 37.8257262, "lon": -122.284347, "tags": {"name": "P and M Market", "shop": "convenience"}}, {"type": "node", "id": 4840631551, "lat": 37.7742787, "lon": -122.4273437, "tags": {"name": "Oak Gourmet", "shop": "convenience"}}, {"type": "node", "id": 4840631555, "lat": 37.7851816, "lon": -122.441416, "tags": {"addr:housenumber": "2498", "addr:street": "Sutter Street", "brand": "Stewart's Shops", "brand:wikidata": "Q7615690", "brand:wikipedia": "en:Stewart's Shops", "name": "Stewart's Shops", "opening_hours": "Mo-Th 08:30-19:00; Fr,Sa 09:00-21:00; Su 09:00-19:00", "shop": "convenience", "website": "https://www.uwebconnect.com/stewartmarket"}}, {"type": "node", "id": 4925215288, "lat": 37.7599492, "lon": -122.4215575, "tags": {"addr:housenumber": "800", "addr:street": "Valencia Street", "atm": "yes", "name": "Rhea's Market & Deli", "shop": "convenience", "wheelchair": "yes"}}, {"type": "node", "id": 4934813168, "lat": 37.7474973, "lon": -122.4094856, "tags": {"addr:city": "San Francisco", "addr:housenumber": "580", "addr:postcode": "94110", "addr:state": "CA", "addr:street": "Precita Avenue", "name": "Sam's Market", "phone": "1-415-824-1027", "shop": "convenience"}}, {"type": "node", "id": 4934813428, "lat": 37.7495179, "lon": -122.4086665, "tags": {"addr:city": "San Francisco", "addr:housenumber": "2801", "addr:postcode": "94110", "addr:state": "CA", "addr:street": "Bryant Street", "name": "ABC Market", "phone": "1-415-282-7420", "shop": "convenience"}}, {"type": "node", "id": 4945079782, "lat": 37.7489379, "lon": -122.4183074, "tags": {"addr:city": "San Francisco", "addr:housenumber": "3000", "addr:postcode": "94110", "addr:state": "CA", "addr:street": "Mission Street", "name": "Stop & Shop Market", "phone": "+1-415-550-0905", "shop": "convenience"}}, {"type": "node", "id": 4945079887, "lat": 37.7490155, "lon": -122.4171635, "tags": {"addr:city": "San Francisco", "addr:housenumber": "3353", "addr:postcode": "94110", "addr:state": "CA", "addr:street": "26th Street", "name": "Saveway Market", "phone": "+1-415-824-4531", "shop": "convenience"}}, {"type": "node", "id": 4947655358, "lat": 37.7430476, "lon": -122.4055358, "tags": {"addr:city": "San Francisco", "addr:housenumber": "300", "addr:postcode": "94124", "addr:state": "CA", "addr:street": "Bayshore Boulevard", "name": "Bayshore Market Deli & Liquor", "phone": "+1-415-695-0201", "shop": "convenience"}}, {"type": "node", "id": 4947854931, "lat": 37.7530496, "lon": -122.4066298, "tags": {"addr:city": "San Francisco", "addr:housenumber": "2702", "addr:postcode": "94110", "addr:state": "CA", "addr:street": "24th Street", "name": "N & V Liquor & Grocery", "phone": "+1-415-647-1212", "shop": "convenience"}}, {"type": "node", "id": 4951457181, "lat": 37.7528111, "lon": -122.4074282, "tags": {"addr:city": "San Francisco", "addr:housenumber": "2751", "addr:postcode": "94110", "addr:state": "CA", "addr:street": "24th Street", "name": "Tony's Market", "phone": "+1-415-824-7123", "shop": "convenience"}}, {"type": "node", "id": 4951872001, "lat": 37.7267869, "lon": -122.4413672, "tags": {"addr:city": "San Francisco", "addr:housenumber": "1901", "addr:postcode": "94112", "addr:state": "CA", "addr:street": "San Jose Avenue", "name": "Roxie Food Center", "phone": "+1-415-587-2345", "shop": "convenience"}}, {"type": "node", "id": 4972855027, "lat": 37.7388099, "lon": -122.414204, "tags": {"addr:housenumber": "820", "addr:street": "Cortland Avenue", "name": "Andi's Market", "opening_hours": "Mo-Th 06:00-00:00; Fr-Sa 06:00-01:00; Su 06:00-00:00", "phone": "+1-415-468-4656", "shop": "convenience"}}, {"type": "node", "id": 4972855028, "lat": 37.7389842, "lon": -122.4145587, "tags": {"name": "Pay Little Market", "shop": "convenience"}}, {"type": "node", "id": 4978426297, "lat": 37.8547089, "lon": -122.1245074}, {"type": "node", "id": 4978426298, "lat": 37.8546962, "lon": -122.1243278}, {"type": "node", "id": 4978426299, "lat": 37.8544438, "lon": -122.1243565}, {"type": "node", "id": 4978426300, "lat": 37.8544495, "lon": -122.1244376}, {"type": "node", "id": 4978426301, "lat": 37.8543918, "lon": -122.1244441}, {"type": "node", "id": 4978426302, "lat": 37.8543988, "lon": -122.1245426}, {"type": "node", "id": 4985735233, "lat": 37.9989339, "lon": -122.1326437}, {"type": "node", "id": 4985735234, "lat": 37.9987218, "lon": -122.132677}, {"type": "node", "id": 4985735235, "lat": 37.9987186, "lon": -122.1326439}, {"type": "node", "id": 4985735236, "lat": 37.9987905, "lon": -122.1326326}, {"type": "node", "id": 4985735237, "lat": 37.9987867, "lon": -122.1325929}, {"type": "node", "id": 4985735238, "lat": 37.9989268, "lon": -122.1325709}, {"type": "node", "id": 4985735240, "lat": 37.9987999, "lon": -122.1326639}, {"type": "node", "id": 4985735247, "lat": 37.9982857, "lon": -122.1328252}, {"type": "node", "id": 4985735248, "lat": 37.9981297, "lon": -122.1328515}, {"type": "node", "id": 4985735249, "lat": 37.9981156, "lon": -122.1327162}, {"type": "node", "id": 4985735250, "lat": 37.9982716, "lon": -122.1326899}, {"type": "node", "id": 4985912697, "lat": 37.9925527, "lon": -122.1302584}, {"type": "node", "id": 4985912698, "lat": 37.9924127, "lon": -122.1301995}, {"type": "node", "id": 4985912699, "lat": 37.9924613, "lon": -122.1300137}, {"type": "node", "id": 4985912700, "lat": 37.9926013, "lon": -122.1300726}, {"type": "node", "id": 4985914380, "lat": 38.0096966, "lon": -122.132109}, {"type": "node", "id": 4985914381, "lat": 38.0097706, "lon": -122.131983}, {"type": "node", "id": 4985914382, "lat": 38.0098662, "lon": -122.1320734}, {"type": "node", "id": 4985914383, "lat": 38.0097922, "lon": -122.1321994}, {"type": "node", "id": 4985963152, "lat": 38.0111355, "lon": -122.1186954}, {"type": "node", "id": 4985963153, "lat": 38.0112105, "lon": -122.1186173}, {"type": "node", "id": 4985963154, "lat": 38.0110918, "lon": -122.1184336}, {"type": "node", "id": 4985963155, "lat": 38.0110167, "lon": -122.1185117}, {"type": "node", "id": 4985963211, "lat": 37.9964854, "lon": -122.1202546}, {"type": "node", "id": 4985963212, "lat": 37.9964518, "lon": -122.1201925}, {"type": "node", "id": 4985963213, "lat": 37.9964126, "lon": -122.1202266}, {"type": "node", "id": 4985963214, "lat": 37.9963483, "lon": -122.1201078}, {"type": "node", "id": 4985963215, "lat": 37.996548, "lon": -122.1199337}, {"type": "node", "id": 4985963216, "lat": 37.9966289, "lon": -122.1200831}, {"type": "node", "id": 4985963217, "lat": 37.9965881, "lon": -122.1201186}, {"type": "node", "id": 4985963218, "lat": 37.9966052, "lon": -122.1201501}, {"type": "node", "id": 5032849675, "lat": 37.8667459, "lon": -122.2653364}, {"type": "node", "id": 5032849676, "lat": 37.8665698, "lon": -122.2654158}, {"type": "node", "id": 5032849677, "lat": 37.8665986, "lon": -122.2655186}, {"type": "node", "id": 5032849678, "lat": 37.8667748, "lon": -122.2654391}, {"type": "node", "id": 5157300623, "lat": 37.9489917, "lon": -122.324522, "tags": {"addr:postcode": "94805", "name": "Stop and Go Market", "opening_hours": "Mo-Su 07:30-23:00", "phone": "+15102372161", "shop": "convenience"}}, {"type": "node", "id": 5222768492, "lat": 37.7670881, "lon": -122.4465288, "tags": {"addr:city": "San Francisco", "addr:housenumber": "205", "addr:postcode": "94117", "addr:state": "CA", "addr:street": "Frederick Street", "name": "Ashbury Market", "shop": "convenience"}}, {"type": "node", "id": 5302500269, "lat": 37.8106062, "lon": -122.243835, "tags": {"name": "Lakeshore Produce", "shop": "convenience"}}, {"type": "node", "id": 5311107139, "lat": 37.7998816, "lon": -122.427797, "tags": {"addr:housenumber": "1701", "addr:street": "Greenwich Street", "name": "Fort Mason Market and Deli", "shop": "convenience"}}, {"type": "node", "id": 5315466469, "lat": 37.7860068, "lon": -122.4331305, "tags": {"addr:city": "San Francisco", "addr:housenumber": "1758", "addr:postcode": "94115", "addr:street": "Fillmore Street", "name": "Friends Liquor Groceries", "shop": "convenience"}}, {"type": "node", "id": 5408971979, "lat": 37.7870122, "lon": -122.4201097, "tags": {"addr:housenumber": "1107", "addr:street": "Polk St", "alt_name": "New India Bazaar", "name": "New India Bazar", "opening_hours": "Mo-Su 10:00-20:00", "phone": "(415) 928-4553", "shop": "convenience", "website": "https://sites.google.com/site/newindiabazarsf/"}}, {"type": "node", "id": 5461090840, "lat": 37.7350041, "lon": -122.4169502, "tags": {"addr:city": "San Francisco", "addr:housenumber": "399", "addr:postcode": "94110", "addr:state": "CA", "addr:street": "Crescent Avenue", "name": "U-Save Liquor & Grocery", "opening_hours": "Mo-Sa 05:00-22:00", "phone": "+1-415-829-3639", "shop": "convenience"}}, {"type": "node", "id": 5471625036, "lat": 37.7758923, "lon": -122.2226979, "tags": {"name": "Friends Market", "shop": "convenience"}}, {"type": "node", "id": 5485382230, "lat": 37.7536832, "lon": -122.4228341, "tags": {"addr:city": "San Francisco", "addr:housenumber": "3558", "addr:street": "23rd Street", "name": "Sean's Market & Deli", "phone": "+1 415 872 9410", "shop": "convenience"}}, {"type": "node", "id": 5538811234, "lat": 37.7625243, "lon": -122.3957876, "tags": {"addr:city": "San Francisco", "addr:housenumber": "1301", "addr:postcode": "94107", "addr:state": "CA", "addr:street": "18th Street", "name": "New Potrero Market", "shop": "convenience"}}, {"type": "node", "id": 5567351717, "lat": 37.814161, "lon": -122.2742422, "tags": {"name": "Produce Pro", "shop": "convenience"}}, {"type": "node", "id": 5650690021, "lat": 37.8033968, "lon": -122.4034072, "tags": {"addr:housenumber": "1425", "addr:street": "Sansome Street", "name": "RJ\u2019s market", "shop": "convenience"}}, {"type": "node", "id": 5655053621, "lat": 37.7915775, "lon": -122.3925093, "tags": {"shop": "convenience"}}, {"type": "node", "id": 5776518843, "lat": 37.7842554, "lon": -122.2387939, "tags": {"name": "Food Mart", "shop": "convenience"}}, {"type": "node", "id": 5893320826, "lat": 37.7484256, "lon": -122.4783682, "tags": {"addr:housenumber": "2101", "addr:street": "21st Avenue", "amenity": "cafe", "cuisine": "sandwich", "name": "Uncle Joe", "shop": "convenience", "takeaway": "yes"}}, {"type": "node", "id": 5909483563, "lat": 37.7681958, "lon": -122.2329807}, {"type": "node", "id": 5909483570, "lat": 37.7682786, "lon": -122.23314}, {"type": "node", "id": 5938114980, "lat": 37.7973577, "lon": -122.2051197}, {"type": "node", "id": 5938114981, "lat": 37.7973015, "lon": -122.2052986}, {"type": "node", "id": 5938114982, "lat": 37.797263, "lon": -122.2052098}, {"type": "node", "id": 5963560427, "lat": 37.7743911, "lon": -122.2587803, "tags": {"name": "New Rich's Market", "shop": "convenience"}}, {"type": "node", "id": 5992502460, "lat": 37.885275, "lon": -122.2744645}, {"type": "node", "id": 5992502462, "lat": 37.8852759, "lon": -122.27447}, {"type": "node", "id": 5992502463, "lat": 37.8852848, "lon": -122.274441}, {"type": "node", "id": 5992502465, "lat": 37.8852888, "lon": -122.2744393}, {"type": "node", "id": 5992502469, "lat": 37.8853266, "lon": -122.2745042}, {"type": "node", "id": 5992502470, "lat": 37.8853312, "lon": -122.2745022}, {"type": "node", "id": 5992502471, "lat": 37.8853395, "lon": -122.2744734}, {"type": "node", "id": 5992502472, "lat": 37.885341, "lon": -122.2744788}, {"type": "node", "id": 6127651147, "lat": 37.8400087, "lon": -122.2702943, "tags": {"name": "Minute Mart", "shop": "convenience"}}, {"type": "node", "id": 6128018721, "lat": 37.8417185, "lon": -122.2741158, "tags": {"name": "Adeline Liquor and Market", "shop": "convenience"}}, {"type": "node", "id": 6202812381, "lat": 37.8031352, "lon": -122.2350207}, {"type": "node", "id": 6202812382, "lat": 37.8029846, "lon": -122.2349826}, {"type": "node", "id": 6202812383, "lat": 37.8030033, "lon": -122.2348646}, {"type": "node", "id": 6202834855, "lat": 37.8021983, "lon": -122.2419901, "tags": {"name": "Dave's Grocery", "shop": "convenience"}}, {"type": "node", "id": 6203794589, "lat": 37.7970305, "lon": -122.2518286, "tags": {"name": "Jax Liquor", "shop": "convenience"}}, {"type": "node", "id": 6248463109, "lat": 37.7376859, "lon": -122.1975229}, {"type": "node", "id": 6257278105, "lat": 37.7459284, "lon": -122.1564358, "tags": {"name": "Lucky Stop Market", "shop": "convenience"}}, {"type": "node", "id": 6313715850, "lat": 37.7914428, "lon": -122.2365208, "tags": {"name": "A-G Market", "shop": "convenience"}}, {"type": "node", "id": 6313715852, "lat": 37.7922097, "lon": -122.2426133, "tags": {"alt_name": "Blue & Gold Liquor", "name": "Blue & Gold Market", "shop": "convenience"}}, {"type": "node", "id": 6344499079, "lat": 37.8753933, "lon": -122.2945985, "tags": {"name": "SP Food Mart Gasoline", "shop": "convenience"}}, {"type": "node", "id": 6344499185, "lat": 37.8790365, "lon": -122.2948266}, {"type": "node", "id": 6344499186, "lat": 37.87903, "lon": -122.2948607}, {"type": "node", "id": 6344499187, "lat": 37.8790981, "lon": -122.2948815}, {"type": "node", "id": 6344499188, "lat": 37.8791771, "lon": -122.2948695}, {"type": "node", "id": 6344499189, "lat": 37.8790893, "lon": -122.2949278}, {"type": "node", "id": 6344499190, "lat": 37.8791618, "lon": -122.2949499}, {"type": "node", "id": 6417228186, "lat": 37.7936988, "lon": -122.4060709, "tags": {"addr:housenumber": "718", "addr:postcode": "94108", "addr:street": "Grant Avenue", "name": "Wok Shop", "opening_hours": "Mo-Su 10:00-18:00", "phone": "415-989-3797", "shop": "convenience", "website": "http://www.wokshop.com"}}, {"type": "node", "id": 6486930280, "lat": 37.7801447, "lon": -122.4795405, "tags": {"addr:housenumber": "5601", "addr:street": "Geary Boulevard", "name": "Mainland Market Co.", "shop": "convenience", "start_date": "2014", "strapline": "Nourishing the neighborhood"}}, {"type": "node", "id": 6486931285, "lat": 37.7801094, "lon": -122.4801072, "tags": {"fixme": "double check type of shop", "name": "New World Market", "shop": "convenience"}}, {"type": "node", "id": 6516857460, "lat": 37.7940233, "lon": -122.407566, "tags": {"name:en": "D&D Market", "shop": "convenience"}}, {"type": "node", "id": 6582227557, "lat": 37.7917231, "lon": -122.3974122, "tags": {"addr:housenumber": "333", "addr:street": "Market Street", "name": "Russell\u2019s", "shop": "convenience"}}, {"type": "node", "id": 6591801233, "lat": 37.7817838, "lon": -122.4512893, "tags": {"addr:housenumber": "3001", "addr:street": "Geary Boulevard", "name": "Sunny Market", "opening_hours": "Mo-Sa 8:00-24:00; Su 09:30-24:00", "shop": "convenience"}}, {"type": "node", "id": 6645406775, "lat": 37.7757295, "lon": -122.4313234, "tags": {"name": "Tim\u2019s Market", "shop": "convenience"}}, {"type": "node", "id": 6656647966, "lat": 37.8699959, "lon": -122.2814097}, {"type": "node", "id": 6656647967, "lat": 37.86999, "lon": -122.2814627}, {"type": "node", "id": 6656647968, "lat": 37.8700311, "lon": -122.28147}, {"type": "node", "id": 6656647969, "lat": 37.8700371, "lon": -122.2814171}, {"type": "node", "id": 6680891226, "lat": 37.8129916, "lon": -122.2790343, "tags": {"name": "Ideal Market", "shop": "convenience"}}, {"type": "node", "id": 6689790038, "lat": 37.8373999, "lon": -122.2644726, "tags": {"brand": "ampm", "brand:wikidata": "Q306960", "brand:wikipedia": "en:Ampm", "name": "ampm", "shop": "convenience"}}, {"type": "node", "id": 6690471270, "lat": 37.8094428, "lon": -122.2781794, "tags": {"shop": "convenience"}}, {"type": "node", "id": 6711126271, "lat": 37.8699194, "lon": -122.2876455, "tags": {"shop": "convenience"}}, {"type": "node", "id": 6757729524, "lat": 37.8812581, "lon": -122.18686}, {"type": "node", "id": 6757729525, "lat": 37.8811007, "lon": -122.1870774}, {"type": "node", "id": 6757729526, "lat": 37.8810237, "lon": -122.1869879}, {"type": "node", "id": 6757729527, "lat": 37.8811811, "lon": -122.1867705}, {"type": "node", "id": 6791328375, "lat": 37.8002721, "lon": -122.2237412, "tags": {"addr:housenumber": "1615", "name": "7 Seas Food & Liquor", "opening_hours:signed": "no", "shop": "convenience"}}, {"type": "node", "id": 6791676302, "lat": 37.7829075, "lon": -122.4629968, "tags": {"addr:housenumber": "339", "addr:street": "Clement Street", "name": "T & L Market", "name:zh": "\u7fa9\u8208\u5e73\u50f9\u5e02\u5834", "shop": "convenience"}}, {"type": "node", "id": 6829148263, "lat": 37.7801867, "lon": -122.4788947, "tags": {"addr:housenumber": "5527", "addr:street": "Geary Boulevard", "name": "Richmond Produce Market", "shop": "convenience"}}, {"type": "node", "id": 6831790667, "lat": 37.7806414, "lon": -122.4687676, "tags": {"addr:housenumber": "4605", "addr:street": "Geary Boulevard", "name": "Gourmand", "shop": "convenience"}}, {"type": "node", "id": 6831790678, "lat": 37.7805883, "lon": -122.4699033, "tags": {"addr:housenumber": "4715", "addr:street": "Geary Boulevard", "cuisine": "salvadorean", "name": "Express Liquor", "shop": "convenience"}}, {"type": "node", "id": 6831833987, "lat": 37.7805681, "lon": -122.470578, "tags": {"name": "State Market", "shop": "convenience"}}, {"type": "node", "id": 6833462315, "lat": 37.7807228, "lon": -122.4665611, "tags": {"addr:housenumber": "4401", "addr:street": "Geary Boulevard", "name": "Modera Liquor & Wine", "shop": "convenience"}}, {"type": "node", "id": 6967881716, "lat": 37.7750476, "lon": -122.468281, "tags": {"addr:housenumber": "701", "addr:street": "10th Avenue", "name": "Denhard's Market", "opening_hours": "Mo-Su 09:00-21:00", "shop": "convenience"}}, {"type": "node", "id": 6986281616, "lat": 37.7647819, "lon": -122.4171403, "tags": {"name": "Food Mart", "shop": "convenience"}}, {"type": "node", "id": 7044717961, "lat": 37.7721424, "lon": -122.4187754, "tags": {"addr:housenumber": "1601", "addr:street": "Mission Street", "name": "Tower Car Wash", "shop": "convenience"}}, {"type": "node", "id": 7108562571, "lat": 37.765101, "lon": -122.4767648}, {"type": "node", "id": 7108562572, "lat": 37.7650843, "lon": -122.4767621}, {"type": "node", "id": 7199451540, "lat": 37.9264756, "lon": -122.3858963, "tags": {"name": "Point Richmond Market", "shop": "convenience"}}, {"type": "node", "id": 7199451541, "lat": 37.9260964, "lon": -122.3859269, "tags": {"name": "Santa Fe Market", "shop": "convenience"}}, {"type": "node", "id": 7235618614, "lat": 37.7823361, "lon": -122.416926, "tags": {"shop": "convenience"}}, {"type": "node", "id": 7236129266, "lat": 37.7810277, "lon": -122.4601659, "tags": {"addr:city": "San Francisco", "addr:housenumber": "3801", "addr:postcode": "94118", "addr:state": "CA", "addr:street": "Geary Boulevard", "name": "Stardust Market", "shop": "convenience"}}, {"type": "node", "id": 7237427005, "lat": 37.8166546, "lon": -122.3708828, "tags": {"name": "Island Market & Deli", "noaddress": "yes", "shop": "convenience"}},